"","Country","Admin1","Name","Facility type","Ownership","Latitude","Longitude","LL source","type","FacilityType","Travel_Time"
"1","Democratic Republic of the Congo","Bas-Uele","Aketi Hospital","Hôpital Général de Référence","Publique",2.7306,23.7852,"Geonames","Hôpital","Hospital",18.9293781372123
"2","Democratic Republic of the Congo","Bas-Uele","Ango Hospital","Hôpital Général de Référence","Publique",4.0569,25.8506,"Geonames","Hôpital","Hospital",16.5560319454333
"3","Democratic Republic of the Congo","Bas-Uele","Bili Hospital","Hôpital Général de Référence","Publique",4.245,26.539,"Geonames","Hôpital","Hospital",21.5964531299807
"4","Democratic Republic of the Congo","Bas-Uele","Buta Hospital","Hôpital Général de Référence","Publique",2.7888,24.7294,"Geonames","Hôpital","Hospital",16.4108896923617
"5","Democratic Republic of the Congo","Bas-Uele","Likati Hospital","Hôpital Général de Référence","Publique",2.8863,24.0495,"Other","Hôpital","Hospital",18.2492998701562
"6","Democratic Republic of the Congo","Bas-Uele","Pawa Hospital","Hôpital Général de Référence","Publique",4.0864,26.6827,"Other","Hôpital","Hospital",17.3778603217647
"7","Democratic Republic of the Congo","Bas-Uele","Poko Hospital","Hôpital Général de Référence","Publique",3.153,26.8827,"Other","Hôpital","Hospital",9.92494367159416
"8","Democratic Republic of the Congo","Bas-Uele","Titule Hospital","Hôpital Général de Référence","Publique",3.2631,25.5622,"Geonames","Hôpital","Hospital",14.193669679707
"9","Democratic Republic of the Congo","Bas-Uele","Viadana Hospital","Hôpital Général de Référence","Publique",2.8786,27.1895,"Geonames","Hôpital","Hospital",9.06276100218614
"10","Democratic Republic of the Congo","Haut-Uele","Aba Hospital","Hôpital Général de Référence","Publique",3.8204,30.1963,"Geonames","Hôpital","Hospital",10.7684728143928
"11","Democratic Republic of the Congo","Haut-Uele","Doruma Hospital","Hôpital Général de Référence","Publique",4.7364,27.6994,"Other","Hôpital","Hospital",16.067469265784
"12","Democratic Republic of the Congo","Haut-Uele","Faradje Hospital","Hôpital Général de Référence","Publique",3.735,29.7058,"Other","Hôpital","Hospital",9.29348115587922
"13","Democratic Republic of the Congo","Haut-Uele","Gombari Hospital","Hôpital Général de Référence","Publique",2.7196,29.0659,"Other","Hôpital","Hospital",5.62625203790133
"14","Democratic Republic of the Congo","Haut-Uele","Isiro Hospital","Hôpital Général de Référence","Publique",2.7685,27.6231,"Other","Hôpital","Hospital",7.43910467469319
"15","Democratic Republic of the Congo","Haut-Uele","Nebobongo Centre Hospital","Centre Hôpital","Publique",2.4619,27.6318,"Combination","Centre Hôpital","Hospital",8.81003782370033
"16","Democratic Republic of the Congo","Haut-Uele","Neisu Centre Hospital","Centre Hôpital","Publique",2.7326,27.4048,"Geonames","Centre Hôpital","Hospital",8.53329612562899
"17","Democratic Republic of the Congo","Haut-Uele","Niangara Hospital","Hôpital Général de Référence","Publique",3.6958,27.8736,"Geonames","Hôpital","Hospital",9.63601243745196
"18","Democratic Republic of the Congo","Haut-Uele","Watsa Hospital","Hôpital Général de Référence","Publique",3.0402,29.5348,"Geonames","Hôpital","Hospital",7.4511674513113
"19","Democratic Republic of the Congo","Ituri","Adi Hospital","Hôpital Général de Référence","Publique",3.403,30.7993,"Other","Hôpital","Hospital",11.0204046755899
"20","Democratic Republic of the Congo","Ituri","Ariwara Hospital","Hôpital Général de Référence","Publique",3.1413,30.7018,"Other","Hôpital","Hospital",10.2141154379806
"21","Democratic Republic of the Congo","Ituri","Aru Hospital","Hôpital Général de Référence","Publique",3.0282,30.6124,"Geonames","Hôpital","Hospital",10.0789561045182
"22","Democratic Republic of the Congo","Ituri","Aungba Hospital","Hôpital Général de Référence","Publique",2.5476,30.5056,"Geonames","Hôpital","Hospital",7.33068230724052
"23","Democratic Republic of the Congo","Ituri","Bambu Hospital","Hôpital Général de Référence","Publique",1.8029,30.2446,"Combination","Hôpital","Hospital",3.42828195065948
"24","Democratic Republic of the Congo","Ituri","Biringi Hospital","Hôpital Général de Référence","Publique",2.8059,30.3353,"Geonames","Hôpital","Hospital",8.35259167055205
"25","Democratic Republic of the Congo","Ituri","Boga Hospital","Hôpital Général de Référence","Publique",1.0299,29.9556,"Other","Hôpital","Hospital",1.15136000331241
"26","Democratic Republic of the Congo","Ituri","Bunia Hospital","Hôpital Général de Référence","Publique",1.5623,30.2515,"Geonames","Hôpital","Hospital",2.76223143507046
"27","Democratic Republic of the Congo","Ituri","Drodro Hospital","Hôpital Général de Référence","Publique",1.7696,30.5326,"Other","Hôpital","Hospital",4.06470718294285
"28","Democratic Republic of the Congo","Ituri","Fataki Hospital","Hôpital Général de Référence","Publique",2.0029,30.5659,"Other","Hôpital","Hospital",5.07618805927652
"29","Democratic Republic of the Congo","Ituri","Jiba Hospital","Hôpital Général de Référence","Publique",1.8822,30.6975,"Other","Hôpital","Hospital",4.59702686128846
"30","Democratic Republic of the Congo","Ituri","Laybo Hospital","Hôpital Général de Référence","Publique",3.2652,30.5663,"Combination","Hôpital","Hospital",11.0907913065246
"31","Democratic Republic of the Congo","Ituri","Logo Hospital","Hôpital Général de Référence","Publique",2.1838,30.9241,"Other","Hôpital","Hospital",5.74651825778701
"32","Democratic Republic of the Congo","Ituri","Lolwa Hospital","Hôpital Général de Référence","Publique",1.2361,29.4659,"Other","Hôpital","Hospital",5.05443896183856
"33","Democratic Republic of the Congo","Ituri","Mahagi Hospital","Hôpital Général de Référence","Publique",2.3028,30.9911,"Geonames","Hôpital","Hospital",5.68055489287574
"34","Democratic Republic of the Congo","Ituri","Mambasa Hospital","Hôpital Général de Référence","Publique",1.3651,29.0353,"Geonames","Hôpital","Hospital",0.897639751241405
"35","Democratic Republic of the Congo","Ituri","Rethy Hospital","Hôpital Général de Référence","Publique",2.0862,30.8826,"Other","Hôpital","Hospital",5.55466988384663
"36","Democratic Republic of the Congo","Ituri","Rimba Hospital","Hôpital Général de Référence","Publique",2.2203,30.6568,"Other","Hôpital","Hospital",5.09680654032394
"37","Democratic Republic of the Congo","Ituri","Rungu Hospital","Hôpital Général de Référence","Publique",2.953,30.316,"Other","Hôpital","Hospital",9.38712609419755
"38","Democratic Republic of the Congo","Maniema","Bioglodie Centre Hospital","Centre Hôpital","Publique",-2.9356,25.8979,"Combination","Centre Hôpital","Hospital",15.3934079556855
"39","Democratic Republic of the Congo","Maniema","Ferekeni Hospital","Hôpital Général de Référence","Publique",-1.6668,26.1761,"Combination","Hôpital","Hospital",12.6179112865
"40","Democratic Republic of the Congo","Maniema","Kailo Hospital","Hôpital Général de Référence","Publique",-2.6279,26.1023,"Geonames","Hôpital","Hospital",13.9924502161102
"41","Democratic Republic of the Congo","Maniema","Kalima Hospital","Hôpital Général de Référence","Publique",-2.7064,26.2839,"Geonames","Hôpital","Hospital",14.2452139252465
"42","Democratic Republic of the Congo","Maniema","Kitulizo / BDOM Centre Hospital","Centre Hôpital","Publique",-2.9717,25.9135,"Combination","Centre Hôpital","Hospital",15.3860422054186
"43","Democratic Republic of the Congo","Maniema","Lubutu Hospital","Hôpital Général de Référence","Publique",-0.7421,26.5834,"Geonames","Hôpital","Hospital",8.196159719295
"44","Democratic Republic of the Congo","Maniema","MSR Centre Hospital","Centre Hôpital","Publique",-2.8582,25.8843,"Combination","Centre Hôpital","Hospital",15.8175392641321
"45","Democratic Republic of the Congo","Maniema","Musofu Centre Hospital","Centre Hôpital","Publique",-2.8717,25.9027,"Combination","Centre Hôpital","Hospital",15.6868667689799
"46","Democratic Republic of the Congo","Maniema","Obokote Hospital","Hôpital Général de Référence","Publique",-0.8952,26.2912,"Google Earth","Hôpital","Hospital",9.18683695845453
"47","Democratic Republic of the Congo","Maniema","Pangi Hospital","Hôpital Général de Référence","Publique",-3.1705,26.6315,"Geonames","Hôpital","Hospital",13.7705837506218
"48","Democratic Republic of the Congo","Maniema","Punia Hospital","Hôpital Général de Référence","Publique",-1.4508,26.4289,"Geonames","Hôpital","Hospital",10.7968042462274
"49","Democratic Republic of the Congo","Maniema","SNCC Centre Hospital","Centre Hôpital","Publique",-2.9175,25.9334,"Combination","Centre Hôpital","Hospital",15.3784834728175
"50","Democratic Republic of the Congo","Nord Kivu","Alimbongo Hospital","Hôpital Général de Référence","Publique",-0.3633,29.1831,"Google Earth","Hôpital","Hospital",0.451766020748384
"51","Democratic Republic of the Congo","Nord Kivu","Beni Hospital","Hôpital Général de Référence","Publique",0.4939,29.4653,"Google Earth","Hôpital","Hospital",0
"52","Democratic Republic of the Congo","Nord Kivu","Biena Hospital","Hôpital Général de Référence","Publique",0.3208,28.8865,"Other","Hôpital","Hospital",0.232549061570174
"53","Democratic Republic of the Congo","Nord Kivu","Butembo Hospital","Hôpital Général de Référence","Publique",0.118,29.2227,"Google Earth","Hôpital","Hospital",0.157212442348223
"54","Democratic Republic of the Congo","Nord Kivu","Goma Hospital","Hôpital Général de Référence","Publique",-1.663,29.1906,"Google Earth","Hôpital","Hospital",3.24205449688266
"55","Democratic Republic of the Congo","Nord Kivu","Itebero Hospital","Hôpital Général de Référence","Publique",-1.6759,28.1299,"Google Earth","Hôpital","Hospital",6.83999947495102
"56","Democratic Republic of the Congo","Nord Kivu","Kalunguta Hospital","Hôpital Général de Référence","Publique",0.4881,29.444,"Google Earth","Hôpital","Hospital",0.0276435907099659
"57","Democratic Republic of the Congo","Nord Kivu","Kamango Hospital","Hôpital Général de Référence","Publique",0.6165,29.8947,"Google Earth","Hôpital","Hospital",0.96390260830097
"58","Democratic Republic of the Congo","Nord Kivu","Karisimbi Hospital","Hôpital Général de Référence","Publique",-1.6754,29.2357,"Google Earth","Hôpital","Hospital",3.28586566713953
"59","Democratic Republic of the Congo","Nord Kivu","Katoyi Hospital","Hôpital Général de Référence","Publique",-1.3405,28.7116,"Google Earth","Hôpital","Hospital",3.98676333296739
"60","Democratic Republic of the Congo","Nord Kivu","Katwa Hospital","Hôpital Général de Référence","Publique",0.1164,29.3706,"Google Earth","Hôpital","Hospital",0
"61","Democratic Republic of the Congo","Nord Kivu","Kayna Hospital","Hôpital Général de Référence","Publique",-0.607,29.166,"Google Earth","Hôpital","Hospital",0.224078408238771
"62","Democratic Republic of the Congo","Nord Kivu","Kibua Hospital","Hôpital Général de Référence","Publique",-1.234,28.4163,"Other","Hôpital","Hospital",4.74570071422934
"63","Democratic Republic of the Congo","Nord Kivu","Kirotshe Hospital","Hôpital Général de Référence","Publique",-1.6123,29.031,"Other","Hôpital","Hospital",2.97471492314453
"64","Democratic Republic of the Congo","Nord Kivu","Kyondo Hospital","Hôpital Général de Référence","Publique",4e-04,29.3991,"Google Earth","Hôpital","Hospital",0
"65","Democratic Republic of the Congo","Nord Kivu","Lubero Hospital","Hôpital Général de Référence","Publique",-0.1537,29.2301,"Google Earth","Hôpital","Hospital",0
"66","Democratic Republic of the Congo","Nord Kivu","Mabalako Hospital","Hôpital Général de Référence","Publique",0.6064,29.314,"Google Earth","Hôpital","Hospital",0
"67","Democratic Republic of the Congo","Nord Kivu","Manguredjipa Hospital","Hôpital Général de Référence","Publique",0.3534,28.7655,"Other","Hôpital","Hospital",0.604864082477276
"68","Democratic Republic of the Congo","Nord Kivu","Masereka Hospital","Hôpital Général de Référence","Publique",-0.1392,29.3143,"Google Earth","Hôpital","Hospital",0.0653763492558047
"69","Democratic Republic of the Congo","Nord Kivu","Masisi Hospital","Hôpital Général de Référence","Publique",-1.3973,28.8143,"Google Earth","Hôpital","Hospital",3.63290860376867
"70","Democratic Republic of the Congo","Nord Kivu","Musienene Hospital","Hôpital Général de Référence","Publique",0.017,29.2478,"Google Earth","Hôpital","Hospital",0
"71","Democratic Republic of the Congo","Nord Kivu","Mutwanga Hospital","Hôpital Général de Référence","Publique",0.3383,29.7427,"Google Earth","Hôpital","Hospital",0.617939121912422
"72","Democratic Republic of the Congo","Nord Kivu","Mweso Hospital","Hôpital Général de Référence","Publique",-1.1156,29.0308,"Google Earth","Hôpital","Hospital",1.75018877937221
"73","Democratic Republic of the Congo","Nord Kivu","Oicha Hospital","Hôpital Général de Référence","Publique",0.7028,29.5027,"Google Earth","Hôpital","Hospital",0
"74","Democratic Republic of the Congo","Nord Kivu","Pinga Hospital","Hôpital Général de Référence","Publique",-0.984,28.702,"Google Earth","Hôpital","Hospital",3.54915440422961
"75","Democratic Republic of the Congo","Nord Kivu","Vuhovi Hospital","Hôpital Général de Référence","Publique",0.1426,29.4062,"Other","Hôpital","Hospital",0
"76","Democratic Republic of the Congo","Nord Kivu","Walikale Hospital","Hôpital Général de Référence","Publique",-1.4281,28.065,"Google Earth","Hôpital","Hospital",6.20377077448706
"77","Democratic Republic of the Congo","Sud Kivu","Bunyakiri Hospital","Hôpital Général de Référence","Publique",-2.0791,28.5521,"Combination","Hôpital","Hospital",6.18457654328575
"78","Democratic Republic of the Congo","Sud Kivu","Ciriri Hospital","Hôpital Général de Référence","Publique",-2.5186,28.837,"Combination","Hôpital","Hospital",5.90741283298957
"79","Democratic Republic of the Congo","Sud Kivu","Kadutu Hospital","Hôpital","Publique",-2.5147,28.8522,"Google Earth","Hôpital","Hospital",5.90440132058701
"80","Democratic Republic of the Congo","Sud Kivu","Kakwende Centre Hospital","Centre Hôpital","Publique",-2.8184,28.6864,"Combination","Centre Hôpital","Hospital",7.22695933238565
"81","Democratic Republic of the Congo","Sud Kivu","Kalambi Centre Hospital","Centre Hôpital","Publique",-2.9809,28.516,"Geonames","Centre Hôpital","Hospital",9.08554764024966
"82","Democratic Republic of the Congo","Sud Kivu","Kalehe Hospital","Hôpital Général de Référence","Publique",-2.092,28.9098,"Combination","Hôpital","Hospital",4.67684592370457
"83","Democratic Republic of the Congo","Sud Kivu","Kalonge Hospital","Hôpital Général de Référence","Publique",-2.328,28.746,"Other","Hôpital","Hospital",6.04078510739945
"84","Democratic Republic of the Congo","Sud Kivu","Kalungu Centre Hospital","Centre Hôpital","Publique",-1.7494,28.9956,"Geonames","Centre Hôpital","Hospital",3.34930858943279
"85","Democratic Republic of the Congo","Sud Kivu","Kamituga Hospital","Hôpital Général de Référence","Publique",-3.0675,28.175,"Geonames","Hôpital","Hospital",8.5561634796169
"86","Democratic Republic of the Congo","Sud Kivu","Kaniola Hospital","Hôpital Général de Référence","Publique",-2.5891,28.6128,"Other","Hôpital","Hospital",6.5949945440179
"87","Democratic Republic of the Congo","Sud Kivu","Kasenga Cepac Centre Hospital","Centre Hôpital","Publique",-3.3548,29.1493,"Geonames","Centre Hôpital","Hospital",7.1747446734758
"88","Democratic Republic of the Congo","Sud Kivu","Katshungu Centre Hospital","Centre Hôpital","Publique",-2.4475,27.3827,"Google Earth","Centre Hôpital","Hospital",9.61975255468867
"89","Democratic Republic of the Congo","Sud Kivu","Kiliba CEPAC Centre Hospital","Centre Hôpital","Publique",-3.255,29.203,"Other","Centre Hôpital","Hospital",7.21587433907243
"90","Democratic Republic of the Congo","Sud Kivu","Kitutu Hospital","Hôpital Général de Référence","Publique",-3.3024,28.0993,"Google Earth","Hôpital","Hospital",8.63848322217689
"91","Democratic Republic of the Congo","Sud Kivu","Lemera Hospital","Hôpital Général de Référence","Publique",-3.0406,28.9911,"Combination","Hôpital","Hospital",7.26617825544953
"92","Democratic Republic of the Congo","Sud Kivu","Lulingu Hospital","Hôpital Général de Référence","Publique",-2.333,27.6221,"Combination","Hôpital","Hospital",14.9767768167149
"93","Democratic Republic of the Congo","Sud Kivu","Minova Hospital","Hôpital Général de Référence","Publique",-1.7164,29.0141,"Combination","Hôpital","Hospital",3.26016078410752
"94","Democratic Republic of the Congo","Sud Kivu","Miti-Murhesa Centre Hospital","Centre Hôpital","Publique",-2.3475,28.7827,"Other","Centre Hôpital","Hospital",5.3593453920553
"95","Democratic Republic of the Congo","Sud Kivu","Muku Centre Hospital","Centre Hôpital","Publique",-2.5371,28.8067,"Combination","Centre Hôpital","Hospital",6.08149445998336
"96","Democratic Republic of the Congo","Sud Kivu","Mulungu Hospital","Hôpital Général de Référence","Publique",-2.9237,27.9314,"Combination","Hôpital","Hospital",20.2926720874657
"97","Democratic Republic of the Congo","Sud Kivu","Muzinzi Hospital","Hôpital Général de Référence","Publique",-2.7221,28.8308,"Combination","Hôpital","Hospital",6.29699759420813
"98","Democratic Republic of the Congo","Sud Kivu","Mwenga Hospital","Hôpital Général de Référence","Publique",-3.0238,28.4431,"Geonames","Hôpital","Hospital",7.33070078150202
"99","Democratic Republic of the Congo","Sud Kivu","Panzi Hospital","Hôpital Général de Référence","Publique",-2.5265,28.8522,"Google Earth","Hôpital","Hospital",5.92743807634182
"100","Democratic Republic of the Congo","Sud Kivu","Ruzizi Hospital","Hôpital Général de Référence","Publique",-2.9527,29.1173,"Google Earth","Hôpital","Hospital",6.88935197245843
"101","Democratic Republic of the Congo","Sud Kivu","Sange ETAT Centre Hospital","Centre Hôpital","Publique",-3.0339,29.1884,"Geonames","Centre Hôpital","Hospital",7.13945201657868
"102","Democratic Republic of the Congo","Sud Kivu","Shabunda Hospital","Hôpital Général de Référence","Publique",-2.6891,27.3456,"Geonames","Hôpital","Hospital",10.4305578794057
"103","Democratic Republic of the Congo","Sud Kivu","Walungu Hospital","Hôpital Général de Référence","Publique",-2.6189,28.6688,"Geonames","Hôpital","Hospital",6.2783615710051
"104","Democratic Republic of the Congo","Sud Ubangi","Bafwagbogbo Hospital","Hôpital Général de Référence","Publique",1.6779,26.5774,"Other","Hôpital","Hospital",10.7478799696323
"105","Democratic Republic of the Congo","Sud Ubangi","Basali Hospital","Hôpital Général de Référence","Publique",1.7201,23.9844,"Google Earth","Hôpital","Hospital",20.6958935300649
"106","Democratic Republic of the Congo","Sud Ubangi","Bengamisa Hospital","Hôpital Général de Référence","Publique",0.9707,25.2086,"Google Earth","Hôpital","Hospital",11.7848123976562
"107","Democratic Republic of the Congo","Sud Ubangi","Lowa Hospital","Hôpital Général de Référence","Publique",-1.4004,25.8009,"Google Earth","Hôpital","Hospital",13.1325432754139
"108","Democratic Republic of the Congo","Sud Ubangi","Lubunga Hospital","Hôpital Général de Référence","Publique",0.4941,25.1882,"Google Earth","Hôpital","Hospital",10.6511136849961
"109","Democratic Republic of the Congo","Sud Ubangi","Makiso-Kisangani Hospital","Hôpital Général de Référence","Publique",0.5199,25.1862,"Google Earth","Hôpital","Hospital",10.6583979502254
"110","Democratic Republic of the Congo","Sud Ubangi","Opienge Hospital","Hôpital Général de Référence","Publique",0.2413,27.4206,"Google Earth","Hôpital","Hospital",11.6619700585683
"111","Democratic Republic of the Congo","Sud Ubangi","Tshopo Hospital","Hôpital Général de Référence","Publique",0.642,25.1886,"Google Earth","Hôpital","Hospital",10.9502755190871
"112","Democratic Republic of the Congo","Sud Ubangi","Wanierukula Hospital","Hôpital Général de Référence","Publique",0.2012,25.5198,"Google Earth","Hôpital","Hospital",10.0527838714437
"113","Democratic Republic of the Congo","Sud Ubangi","Yabaondo Hospital","Hôpital Général de Référence","Publique",1.108,23.8065,"Google Earth","Hôpital","Hospital",17.1138578212355
"114","Democratic Republic of the Congo","Sud Ubangi","Yahisuli Hospital","Hôpital Général de Référence","Publique",-0.1073,24.0243,"Other","Hôpital","Hospital",18.1301303894768
"115","Democratic Republic of the Congo","Tshopo","Bafwasende Hospital","Hôpital Général de Référence","Publique",1.0101,27.1604,"Geonames","Hôpital","Hospital",6.09580089533113
"116","Democratic Republic of the Congo","Tshopo","Banalia Hospital","Hôpital Général de Référence","Publique",1.547,25.3272,"Geonames","Hôpital","Hospital",13.3389633672848
"117","Democratic Republic of the Congo","Tshopo","Isangi Hospital","Hôpital Général de Référence","Publique",0.7695,24.2495,"Geonames","Hôpital","Hospital",13.626041537106
"118","Democratic Republic of the Congo","Tshopo","Mandima Hospital","Hôpital Général de Référence","Publique",1.6733,25.9404,"Geonames","Hôpital","Hospital",19.8981153147479
"119","Democratic Republic of the Congo","Tshopo","Mangobo Hospital","Hôpital Général de Référence","Publique",0.6361,25.1161,"Other","Hôpital","Hospital",11.6379672039166
"120","Democratic Republic of the Congo","Tshopo","Opala Hospital","Hôpital Général de Référence","Publique",-0.505,24.2284,"Geonames","Hôpital","Hospital",16.2627864569413
"121","Democratic Republic of the Congo","Tshopo","Ubundu Hospital","Hôpital Général de Référence","Publique",-0.3543,25.4313,"Geonames","Hôpital","Hospital",10.8744152828804
"122","Democratic Republic of the Congo","Tshopo","Yakusu Hospital","Hôpital Général de Référence","Publique",0.5717,25.0263,"Geonames","Hôpital","Hospital",11.0456172866848
"123","Democratic Republic of the Congo","Tshopo","Yaleko Hospital","Hôpital Général de Référence","Publique",0.2175,24.3564,"Geonames","Hôpital","Hospital",13.886325695906
"124","Uganda","Central","Bishop Ascili Hospital","Hospital","Private not for profit",0.4715,32.8352,"Google Earth","Hospital","Hospital",9.54085214674834
"125","Uganda","Central","Buikwe St. Charles Lwanga Hospital","Hospital","Private not for profit",0.2827,33.0339,"Google Earth","Hospital","Hospital",9.78839429647962
"126","Uganda","Central","Butabika National Referal Hospital","National Referral Hospital","MoH",0.32,32.6575,"Geonames","Referral","Hospital",9.02263802910074
"127","Uganda","Central","Entebbe Hospital","Hospital","MoH",0.052,32.465,"GPS","Hospital","Hospital",9.49945797979364
"128","Uganda","Central","Family Care Hospital","Hospital","Private not for profit",0.3532,32.5626,"Other","Hospital","Hospital",8.79459354767353
"129","Uganda","Central","Gombe Hospital","Hospital","MoH",0.179,32.131,"GPS","Hospital","Hospital",8.84514564079664
"130","Uganda","Central","Kalisizo Hospital","Hospital","MoH",-0.535,31.609,"GPS","Hospital","Hospital",7.53867428161172
"131","Uganda","Central","Kawolo Hospital","Hospital","MoH",0.35,32.9333,"Geonames","Hospital","Hospital",9.28331141334485
"132","Uganda","Central","Kayunga Hospital","Hospital","MoH",0.699,32.9037,"Other","Hospital","Hospital",10.1115309122003
"133","Uganda","Central","Kiboga Hospital","Hospital","MoH",0.911,31.776,"GPS","Hospital","Hospital",8.32784212327115
"134","Uganda","Central","Kibuli Hospital","Hospital","Private not for profit",0.3103,32.5941,"Other","Hospital","Hospital",8.88885871907729
"135","Uganda","Central","Kisubi Hospital","Hospital","Private not for profit",0.1254,32.559,"GPS","Hospital","Hospital",9.24474513324548
"136","Uganda","Central","Kiwoko Hospital","Hospital","Private not for profit",0.8464,32.3531,"Other","Hospital","Hospital",9.56840580424562
"137","Uganda","Central","Lugazi Scoul Hospital","Hospital","Private not for profit",0.3669,32.9425,"Other","Hospital","Hospital",9.27449171923702
"138","Uganda","Central","Masaka Hospital","Hospital","MoH",-0.3445,31.7259,"GPS","Hospital","Hospital",7.26538933625067
"139","Uganda","Central","Mengo Hospital","Hospital","Private not for profit",0.3163,32.5609,"Other","Hospital","Hospital",8.84614418756271
"140","Uganda","Central","Mild May Hospital","Hospital","Private not for profit",0.3851,32.476,"Google Earth","Hospital","Hospital",8.87410389762203
"141","Uganda","Central","Mityana Hospital","Hospital","MoH",0.4175,32.0228,"Other","Hospital","Hospital",7.5054412376383
"142","Uganda","Western","Fort Portal Regional Referral Hospital","Regional Referral Hospital","MoH",0.6577,30.2766,"Google Earth","Referral","Hospital",3.06134375370938
"143","Uganda","Northern","Gulu Regional Referral Hospital","Regional Referral Hospital","MoH",2.7794,32.2891,"Google Earth","Referral","Hospital",11.0052357012259
"144","Uganda","Western","Kabale Regional Referal Hospital","Regional Referral Hospital","MoH",-1.2485,29.9891,"Google Earth","Referral","Hospital",4.62908480650546
"145","Uganda","Central","Naggalama Hospital","Hospital","Private not for profit",0.516,32.775,"GPS","Hospital","Hospital",9.42323817621394
"146","Uganda","Central","Naguru - China Uganda Friendship Hospital","Hospital","MoH",0.3292,32.6064,"Google Earth","Hospital","Hospital",8.87852233053166
"147","Uganda","Central","Nakaseke Hospital","Hospital","MoH",0.796,32.436,"GPS","Hospital","Hospital",9.79599518186737
"148","Uganda","Central","Namungoona Orthodox Hospital","Hospital","Private not for profit",0.3393,32.5354,"Other","Hospital","Hospital",8.7777196811405
"149","Uganda","Central","Nkokonjeru Hospital","Hospital","Private not for profit",0.8263,32.9469,"Other","Hospital","Hospital",10.7451059092874
"150","Uganda","Central","Nkozi Hospital","Hospital","Private not for profit",0.023,32.014,"GPS","Hospital","Hospital",9.21588330077994
"151","Uganda","Central","Old Kampala Hospital","Hospital","Private not for profit",0.3168,32.5653,"Other","Hospital","Hospital",8.83664740824007
"152","Uganda","Central","Rakai Hospital","Hospital","MoH",-0.707,31.394,"GPS","Hospital","Hospital",7.1504128327498
"153","Uganda","Central","Ruth Gaylord Hospital","Hospital","Private not for profit",0.3922,32.5495,"Google Earth","Hospital","Hospital",8.89757403371454
"154","Uganda","Central","Saidina Abubakar Islamic Hospital","Hospital","Private not for profit",0.4175,32.5371,"Google Earth","Hospital","Hospital",8.96058240068337
"155","Uganda","Central","St. Francis Nyenga Hospital","Hospital","Private not for profit",0.395,33.14,"GPS","Hospital","Hospital",9.54818777222147
"156","Uganda","Central","St. Joseph Kitovu Hospital","Hospital","Private not for profit",-0.3333,31.7667,"Other","Hospital","Hospital",7.36511137964433
"157","Uganda","Central","St. Stephens Mpererwe Hospital","Hospital","Private not for profit",0.309,32.6047,"Google Earth","Hospital","Hospital",8.91668818193152
"158","Uganda","Central","Uganda Matyrs Hospital","Hospital","Private not for profit",0.3375,32.7186,"Other","Hospital","Hospital",9.07202507327195
"159","Uganda","Central","Villa Maria Hospital","Hospital","Private not for profit",-0.33,31.7345,"Google Earth","Hospital","Hospital",7.29785700046048
"160","Uganda","Eastern","Almeca Medicare Hospital","Hospital","Private not for profit",0.47,33.2123,"Combination","Hospital","Hospital",9.68223453443907
"161","Uganda","Eastern","Al-Shafa Medical Centre Hospital","Hospital","Private not for profit",0.4587,33.2175,"Other","Hospital","Hospital",9.66262191829883
"162","Uganda","Eastern","Atutur Hospital","Hospital","MoH",1.422,33.99,"GPS","Hospital","Hospital",12.8354685334808
"163","Uganda","Eastern","Bududa Hospital","Hospital","MoH",0.3772,32.9197,"Geonames","Hospital","Hospital",9.26901398138713
"164","Uganda","Eastern","Bugiri Hospital","Hospital","MoH",0.5758,33.7429,"GPS","Hospital","Hospital",10.3597030611572
"165","Uganda","Eastern","Bukwo General Hospital","Hospital","MoH",1.294,34.7553,"Google Earth","Hospital","Hospital",14.1328357074483
"166","Uganda","Eastern","Busolwe Hospital","Hospital","MoH",0.8527,33.9283,"GPS","Hospital","Hospital",11.8719946059933
"167","Uganda","Eastern","Buwenge Hospital","Hospital","MoH",0.6481,33.1705,"GPS","Hospital","Hospital",10.1232907679454
"168","Uganda","Eastern","Dabani Hospital","Hospital","Private not for profit",0.4395,34.0516,"GPS","Hospital","Hospital",11.0449090838311
"169","Uganda","Eastern","Iganga Hospital","Hospital","MoH",0.6152,33.4797,"Google Earth","Hospital","Hospital",10.0185633684088
"170","Uganda","Eastern","Kabasa Memorial Hospital","Hospital","Private not for profit",0.8575,33.8926,"GPS","Hospital","Hospital",11.7942964395031
"171","Uganda","Eastern","Kamuli Hospital","Hospital","MoH",0.946,33.118,"GPS","Hospital","Hospital",10.8819945770548
"172","Uganda","Eastern","Kamuli Mission Hospital","Hospital","Private not for profit",0.3526,32.6483,"Google Earth","Hospital","Hospital",8.91235921679997
"173","Uganda","Eastern","Kanginima Hospital","Hospital","Private not for profit",1.202,33.977,"GPS","Hospital","Hospital",12.5883877815483
"174","Uganda","Eastern","Kapchorwa Hospital","Hospital","MoH",1.4054,34.4415,"GPS","Hospital","Hospital",13.0265182667494
"175","Uganda","Eastern","Katakwi Hospital","Hospital","MoH",1.9201,33.9623,"GPS","Hospital","Hospital",15.0760346355362
"176","Uganda","Eastern","Kumi Hospital","Hospital","Private not for profit",1.5038,33.9349,"Other","Hospital","Hospital",13.0798858057862
"177","Uganda","Eastern","Lwala Hospital","Hospital","Private not for profit",1.8623,33.2776,"GPS","Hospital","Hospital",13.1580197700526
"178","Uganda","Eastern","Lyantonde Hospital","Hospital","MoH",-0.4031,31.1572,"Other","Hospital","Hospital",5.85608563595379
"179","Uganda","Eastern","Masafu Hospital","Hospital","MoH",0.4159,34.0339,"GPS","Hospital","Hospital",11.1831270062011
"180","Uganda","Northern","Lira Regional Referral Hospital","Regional Referral Hospital","MoH",2.2555,32.9014,"Google Earth","Referral","Hospital",12.4230041571437
"181","Uganda","Eastern","Ngora Freda Carr Hospital","Hospital","Private not for profit",1.443,33.713,"GPS","Hospital","Hospital",13.8392513469388
"182","Uganda","Eastern","Pallisa Hospital","Hospital","MoH",1.1667,33.7068,"GPS","Hospital","Hospital",11.6615076622122
"183","Uganda","Eastern","Mbale Regional Referral Hospital","Regional Referral Hospital","MoH",1.0925,34.1744,"Google Earth","Referral","Hospital",11.9469316207222
"184","Uganda","Eastern","St. Anthony'S Hospital","Hospital","Private not for profit",0.7028,34.1699,"Other","Hospital","Hospital",11.0527585696339
"185","Uganda","Eastern","Tororo Hospital","Hospital","MoH",0.7059,34.2001,"GPS","Hospital","Hospital",11.08459485367
"186","Uganda","Eastern","Tororo St. Anthony Hospital","Hospital","Private not for profit",0.7028,34.1699,"Other","Hospital","Hospital",11.0527585696339
"187","Uganda","Northern","Aber Hospital","Hospital","Private not for profit",2.214,32.411,"GPS","Hospital","Hospital",11.0401585212152
"188","Uganda","Northern","Abim Hospital","Hospital","MoH",2.676,33.662,"GPS","Hospital","Hospital",15.6582111937624
"189","Uganda","Northern","Adjumani Hospital","Hospital","MoH",2.1369,32.4985,"GPS","Hospital","Hospital",11.6981654813535
"190","Uganda","Northern","Amai Community Hospital","Hospital","Private not for profit",1.7935,32.9199,"GPS","Hospital","Hospital",15.5563312700592
"191","Uganda","Northern","Amudat Hospital","Hospital","MoH",1.9534,34.9438,"Google Earth","Hospital","Hospital",16.1844951602469
"192","Uganda","Northern","Amudat Hospital","Hospital","Private not for profit",1.9534,34.9438,"Google Earth","Hospital","Hospital",16.1844951602469
"193","Uganda","Northern","Anaka Hospital","Hospital","MoH",2.5944,31.9633,"Other","Hospital","Hospital",9.80719736267726
"194","Uganda","Northern","Angal Hospital","Hospital","Private not for profit",2.395,31.172,"GPS","Hospital","Hospital",7.57355498328972
"195","Uganda","Northern","Apac Hospital","Hospital","MoH",1.9817,32.5332,"GPS","Hospital","Hospital",11.0208576081054
"196","Uganda","Northern","Arua Hospital","Hospital","MoH",3.0229,30.912,"GPS","Hospital","Hospital",8.97593223334084
"197","Uganda","Western","Mbarara Regional Referral Hospital","Regional Referral Hospital","MoH",-0.6077,30.67,"Google Earth","Referral","Hospital",4.54796140197906
"198","Uganda","Northern","Kaabong Hospital","Hospital","MoH",3.5151,34.1312,"GPS","Hospital","Hospital",16.2182320459007
"199","Uganda","Northern","Kalongo Ambrosoli Memerial Hospital","Hospital","Private not for profit",3.0287,33.3688,"Google Earth","Hospital","Hospital",14.4659017441635
"200","Uganda","Northern","Koboko Hospital","Hospital","MoH",3.4094,30.9594,"GPS","Hospital","Hospital",10.0223650272601
"201","Uganda","Northern","Kuluva Hospital","Hospital","Private not for profit",2.9498,30.9338,"GPS","Hospital","Hospital",8.78695459342171
"202","Uganda","Central","Mubende Regional Referral Hospital","Regional Referral Hospital","MoH",0.5892,31.36,"Google Earth","Referral","Hospital",6.07665569960706
"203","Uganda","Northern","Maracha Hospital","Hospital","Private not for profit",3.2399,30.9214,"GPS","Hospital","Hospital",9.55522161165347
"204","Uganda","Northern","Matany Hospital","Hospital","Private not for profit",2.4474,34.393,"GPS","Hospital","Hospital",16.5606126336764
"205","Uganda","Northern","Moroto Hospital","Hospital","MoH",2.5333,34.7666,"Other","Hospital","Hospital",19.619998700119
"206","Uganda","Northern","Moyo Hospital","Hospital","MoH",3.6578,31.728,"GPS","Hospital","Hospital",12.4653480603613
"207","Uganda","Northern","Nebbi Hospital","Hospital","MoH",2.48,31.086,"GPS","Hospital","Hospital",7.70870979660958
"208","Uganda","Northern","Nyapea Hospital","Hospital","Private not for profit",2.475,30.943,"GPS","Hospital","Hospital",7.47834110062787
"209","Uganda","Northern","Oriajini Hospital","Hospital","Private not for profit",3.1001,30.9681,"GPS","Hospital","Hospital",9.22721179514069
"210","Uganda","Northern","St. Joseph'S Kitgum Hospital","Hospital","Private not for profit",3.2979,32.8809,"GPS","Hospital","Hospital",13.118010345536
"211","Uganda","Northern","St. Mary'S Lacor Hospital","Hospital","Private not for profit",2.7684,32.252,"GPS","Hospital","Hospital",10.9165319737088
"212","Uganda","Northern","Yumbe Hospital","Hospital","MoH",3.482,31.251,"GPS","Hospital","Hospital",10.8546907415729
"213","Uganda","Western","Buliisa Hospital","Hospital","MoH",-1.1474,30.178,"Google Earth","Hospital","Hospital",5.1302911143142
"214","Uganda","Western","Bundibugyo Hospital","Hospital","MoH",0.8333,30.25,"Other","Hospital","Hospital",3.16070656091657
"215","Uganda","Western","Bwera Hospital","Hospital","MoH",0.036,29.761,"GPS","Hospital","Hospital",1.26545977063263
"216","Uganda","Western","Bwindi Community Hospital","Hospital","Private not for profit",-0.948,29.6208,"Combination","Hospital","Hospital",3.7940181781749
"217","Uganda","Western","Comboni Hospital","Hospital","Private not for profit",-0.5407,30.1891,"Google Earth","Hospital","Hospital",3.37971766962921
"218","Uganda","Central","Mulago National Refferal Hospital","National Referral Hospital","MoH",0.35,32.5833,"Other","Referral","Hospital",8.81314644494053
"219","Uganda","Western","Hoima Hospital","Hospital","MoH",1.433,31.335,"GPS","Hospital","Hospital",6.69208540647065
"220","Uganda","Western","Ibanda Hospital","Hospital","Private not for profit",-0.1539,30.5319,"Other","Hospital","Hospital",4.53420691539416
"221","Uganda","Western","Ishaka Adventist Hospital","Hospital","Private not for profit",-0.543,30.1386,"Google Earth","Hospital","Hospital",3.26080547026563
"222","Uganda","Western","Itojo Hospital","Hospital","MoH",-0.803,30.293,"GPS","Hospital","Hospital",4.59315235486696
"223","Uganda","Central","Mulago Old National Referal Hospital","Regional Referral Hospital","MoH",0.3467,32.5762,"Other","Referral","Hospital",8.81694516670914
"224","Uganda","Western","Kabarole COU Hospital","Hospital","Private not for profit",0.651,30.269,"GPS","Hospital","Hospital",3.04279170551973
"225","Uganda","Western","Kagadi Hospital","Hospital","MoH",0.951,30.806,"GPS","Hospital","Hospital",5.19104727404854
"226","Uganda","Western","Kagando Hospital","Hospital","Private not for profit",0.025,29.891,"GPS","Hospital","Hospital",1.75477061426708
"227","Uganda","Western","Kambuga Hospital","Hospital","MoH",-0.832,29.772,"GPS","Hospital","Hospital",4.83108247077589
"228","Uganda","Western","Kilembe Hospital","Hospital","Private not for profit",0.205,30.01,"GPS","Hospital","Hospital",2.52008518939951
"229","Uganda","Western","Kiryandongo Hospital","Hospital","MoH",1.8802,32.0692,"GPS","Hospital","Hospital",9.52839669916966
"230","Uganda","Western","Kisiizi Hospital","Hospital","Private not for profit",-0.9886,29.9488,"GPS","Hospital","Hospital",4.92171291931692
"231","Uganda","Western","Kisoro Hospital","Hospital","MoH",-1.277,29.684,"GPS","Hospital","Hospital",3.57237299214841
"232","Uganda","Western","Kitagata Hospital","Hospital","MoH",-0.6735,30.1525,"Other","Hospital","Hospital",3.64265071507733
"233","Uganda","Western","Kyenjojo Hospital","Hospital","MoH",0.639,30.623,"GPS","Hospital","Hospital",3.94225958342666
"234","Uganda","Western","Masindi General Hospital","Hospital","MoH",1.6854,31.7266,"Google Earth","Hospital","Hospital",8.16328194701196
"235","Uganda","Eastern","Soroti Regional Referral Hospital","Regional Referral Hospital","MoH",1.7301,33.6238,"Google Earth","Referral","Hospital",14.0176948863727
"236","Uganda","Western","Mutolere Hospital","Hospital","Private not for profit",-1.258,29.719,"GPS","Hospital","Hospital",4.09341000012048
"237","Uganda","Western","Nyakibale Hospital","Hospital","Private not for profit",-0.804,29.926,"GPS","Hospital","Hospital",4.77460748134881
"238","Uganda","Western","Rugarama Hospital","Hospital","Private not for profit",-1.237,29.975,"GPS","Hospital","Hospital",4.58438834244002
"239","Uganda","Western","Ruharo Mission Hospital","Hospital","Private not for profit",-0.613,30.63,"GPS","Hospital","Hospital",4.44656471735105
"240","Uganda","Western","Rushere Community Hospital","Hospital","Private not for profit",-0.2367,30.9611,"Other","Hospital","Hospital",6.09402456479461
"241","Uganda","Western","Tumu Hospital","Hospital","Private not for profit",-1.1466,30.1779,"Google Earth","Hospital","Hospital",5.1302911143142
"242","Uganda","Western","Virika Hospital","Hospital","Private not for profit",0.6332,30.2783,"GPS","Hospital","Hospital",3.10804317827844
"243","Uganda","Eastern","Jinja Regional Referral Hospital","Hospital","MoH",0.4302,33.2108,"Other","Hospital","Hospital",9.66025647529698
"244","Rwanda","East","Gahini District Hospital","District Hospital","Public",-1.8407,30.4832,"GPS","Hospital","Hospital",6.29987912619284
"245","Rwanda","East","Kibungo Referral Hospital","Referral Hospital","Public",-2.1659,30.5394,"GPS","Referral","Hospital",6.56992998471934
"246","Rwanda","East","Kirehe District Hospital","District Hospital","Public",-2.2674,30.6536,"GPS","Hospital","Hospital",6.8180727224189
"247","Rwanda","East","Kiziguro District Hospital","District Hospital","Public",-1.7666,30.3848,"GPS","Hospital","Hospital",6.43607195303215
"248","Rwanda","East","Ngarama District Hospital","District Hospital","Public",-1.546,30.2429,"GPS","Hospital","Hospital",6.55617074679415
"249","Rwanda","East","Nyagatare District Hospital","District Hospital","Public",-1.2981,30.3262,"GPS","Hospital","Hospital",6.67053912140595
"250","Rwanda","East","Nyamata District Hospital","District Hospital","Public",-2.1384,30.0799,"GPS","Hospital","Hospital",5.88962766789788
"251","Rwanda","East","Rwamagana Provincial Hospital","Provincial Hospital","Public",-1.9503,30.4331,"GPS","Hospital","Hospital",6.07165920904405
"252","Rwanda","East","Rwinkwavu District Hospital","District Hospital","Public",-1.964,30.6141,"GPS","Hospital","Hospital",6.527536120697
"253","Rwanda","Kigali City","Caraes Ndera National Referral Hospital","National Referral Hospital","Public",-1.9547,30.169,"GPS","Referral","Hospital",5.6659060097491
"254","Rwanda","Kigali City","CHK/CHUK National Referral Hospital","National Referral Hospital","Public",-1.9565,30.0604,"GPS","Referral","Hospital",5.52725366577007
"255","Rwanda","Kigali City","Kacyiru District Hospital","District Hospital","Public",-1.9331,30.0752,"GPS","Hospital","Hospital",5.55064603947586
"256","Rwanda","Kigali City","Kibagabaga District Hospital","District Hospital","Public",-1.9308,30.112,"GPS","Hospital","Hospital",5.61493919636098
"257","Rwanda","Kigali City","King Faisal National Referral Hospital","National Referral Hospital","Public",-1.9439,30.0951,"GPS","Referral","Hospital",5.5528489636263
"258","Rwanda","Kigali City","Masaka District Hospital","District Hospital","Public",-1.9956,30.1913,"GPS","Hospital","Hospital",5.70444263342701
"259","Rwanda","Kigali City","Muhima District Hospital","District Hospital","Public",-1.9367,30.0585,"GPS","Hospital","Hospital",5.50732780768886
"260","Rwanda","North","Butaro District Hospital","District Hospital","Public",-1.4089,29.8366,"GPS","Hospital","Hospital",5.12099818428413
"261","Rwanda","North","Byumba District Hospital","District Hospital","Public",-1.5893,30.0551,"GPS","Hospital","Hospital",5.65400793174468
"262","Rwanda","North","Kinihira Provincial Hospital","Provincial Hospital","Public",-1.6619,29.9886,"GPS","Hospital","Hospital",5.36766374383016
"263","Rwanda","North","Nemba District Hospital","District Hospital","Public",-1.6377,29.7867,"GPS","Hospital","Hospital",4.99415509254438
"264","Rwanda","North","Ruhengeri Referral Hospital","Referral Hospital","Public",-1.5058,29.6367,"GPS","Referral","Hospital",4.71333989641923
"265","Rwanda","North","Ruli District Hospital","District Hospital","Public",-1.8296,29.8494,"GPS","Hospital","Hospital",5.57669470381249
"266","Rwanda","North","Rutongo District Hospital","District Hospital","Public",-1.8148,30.0598,"GPS","Hospital","Hospital",5.72649729568988
"267","Rwanda","South","Butare CHU National Referral Hospital","National Referral Hospital","Public",-2.612,29.7352,"GPS","Referral","Hospital",6.48137523352258
"268","Rwanda","South","Gakoma District Hospital","District Hospital","Public",-2.3497,29.9177,"GPS","Hospital","Hospital",6.61838734209645
"269","Rwanda","South","Gitwe District Hospital","District Hospital","Public",-2.247,29.6893,"GPS","Hospital","Hospital",6.28444018600273
"270","Rwanda","South","Kabgayi District Hospital","District Hospital","Public",-2.1045,29.7506,"GPS","Hospital","Hospital",5.82675396677184
"271","Rwanda","South","Kabutare District Hospital","District Hospital","Public",-2.6073,29.7473,"GPS","Hospital","Hospital",6.46830657989983
"272","Rwanda","South","Kaduha District Hospital","District Hospital","Public",-2.3333,29.5262,"GPS","Hospital","Hospital",6.53977687105279
"273","Rwanda","South","Kibilizi District Hospital","District Hospital","Public",-2.6486,29.7834,"GPS","Hospital","Hospital",6.64541312832306
"274","Rwanda","South","Kigeme District Hospital","District Hospital","Public",-2.4793,29.5258,"GPS","Hospital","Hospital",7.05013265178238
"275","Rwanda","South","Munini District Hospital","District Hospital","Public",-2.7134,29.5355,"GPS","Hospital","Hospital",7.21321796922209
"276","Rwanda","South","Nyanza District Hospital","District Hospital","Public",-2.3526,29.7493,"GPS","Hospital","Hospital",6.20975406317989
"277","Rwanda","South","Remera Rukoma District Hospital","District Hospital","Public",-1.9387,29.9099,"GPS","Hospital","Hospital",5.91522653910468
"278","Rwanda","South","Ruhango Provincial Hospital","Provincial Hospital","Public",-2.1937,29.9055,"GPS","Hospital","Hospital",6.12480272609392
"279","Rwanda","West","Bushenge Provincial Hospital","Provincial Hospital","Public",-2.4451,28.9858,"GPS","Hospital","Hospital",7.1881173900469
"280","Rwanda","West","Gihundwe District Hospital","District Hospital","Public",-2.483,28.9147,"GPS","Hospital","Hospital",6.95622763456154
"281","Rwanda","West","Gisenyi District Hospital","District Hospital","Public",-1.7021,29.2623,"GPS","Hospital","Hospital",4.29006980816519
"282","Rwanda","West","Kabaya District Hospital","District Hospital","Public",-1.7472,29.5373,"GPS","Hospital","Hospital",4.82888588744895
"283","Rwanda","West","Kibogora District Hospital","District Hospital","Public",-2.3262,29.1322,"GPS","Hospital","Hospital",6.62634920460267
"284","Rwanda","West","Kibuye Referral Hospital","Referral Hospital","Public",-2.067,29.3463,"GPS","Referral","Hospital",5.64513366375191
"285","Rwanda","West","Kirinda District Hospital","District Hospital","Public",-1.9349,29.6253,"GPS","Hospital","Hospital",5.3681198891906
"286","Rwanda","West","Mibilizi District Hospital","District Hospital","Public",-2.5676,28.9537,"GPS","Hospital","Hospital",7.18047568051611
"287","Rwanda","West","Mugonero District Hospital","District Hospital","Public",-2.1808,29.2927,"GPS","Hospital","Hospital",5.97348305126919
"288","Rwanda","West","Muhororo District Hospital","District Hospital","Public",-1.9349,29.6253,"GPS","Hospital","Hospital",5.3681198891906
"289","Rwanda","West","Murunda District Hospital","District Hospital","Public",-1.9068,29.3761,"GPS","Hospital","Hospital",5.05264329243287
"290","Rwanda","West","Shyira District Hospital","District Hospital","Public",-1.682,29.6291,"GPS","Hospital","Hospital",5.00020961821999
