"","Country","Admin1","Name","Facility type","Ownership","Latitude","Longitude","LL source","type","FacilityType","Travel_Time"
"1","Democratic Republic of the Congo","Bas-Uele","Aketi Hospital","Hôpital Général de Référence","Publique",2.7306,23.7852,"Geonames","Hôpital","Hospital",17.1886720718673
"2","Democratic Republic of the Congo","Bas-Uele","Ango Hospital","Hôpital Général de Référence","Publique",4.0569,25.8506,"Geonames","Hôpital","Hospital",14.8577651643405
"3","Democratic Republic of the Congo","Bas-Uele","Bili Hospital","Hôpital Général de Référence","Publique",4.245,26.539,"Geonames","Hôpital","Hospital",19.8981863487846
"4","Democratic Republic of the Congo","Bas-Uele","Buta Hospital","Hôpital Général de Référence","Publique",2.7888,24.7294,"Geonames","Hôpital","Hospital",14.6309269236011
"5","Democratic Republic of the Congo","Bas-Uele","Likati Hospital","Hôpital Général de Référence","Publique",2.8863,24.0495,"Other","Hôpital","Hospital",16.5085938048383
"6","Democratic Republic of the Congo","Bas-Uele","Pawa Hospital","Hôpital Général de Référence","Publique",4.0864,26.6827,"Other","Hôpital","Hospital",15.6795935406524
"7","Democratic Republic of the Congo","Bas-Uele","Poko Hospital","Hôpital Général de Référence","Publique",3.153,26.8827,"Other","Hôpital","Hospital",8.22667689074874
"8","Democratic Republic of the Congo","Bas-Uele","Titule Hospital","Hôpital Général de Référence","Publique",3.2631,25.5622,"Geonames","Hôpital","Hospital",12.4954028986841
"9","Democratic Republic of the Congo","Bas-Uele","Viadana Hospital","Hôpital Général de Référence","Publique",2.8786,27.1895,"Geonames","Hôpital","Hospital",7.36449422138019
"10","Democratic Republic of the Congo","Haut-Uele","Aba Hospital","Hôpital Général de Référence","Publique",3.8204,30.1963,"Geonames","Hôpital","Hospital",9.07020603355935
"11","Democratic Republic of the Congo","Haut-Uele","Doruma Hospital","Hôpital Général de Référence","Publique",4.7364,27.6994,"Other","Hôpital","Hospital",14.3692024848395
"12","Democratic Republic of the Congo","Haut-Uele","Faradje Hospital","Hôpital Général de Référence","Publique",3.735,29.7058,"Other","Hôpital","Hospital",7.59521437510312
"13","Democratic Republic of the Congo","Haut-Uele","Gombari Hospital","Hôpital Général de Référence","Publique",2.7196,29.0659,"Other","Hôpital","Hospital",3.92798525723515
"14","Democratic Republic of the Congo","Haut-Uele","Isiro Hospital","Hôpital Général de Référence","Publique",2.7685,27.6231,"Other","Hôpital","Hospital",5.74083789394586
"15","Democratic Republic of the Congo","Haut-Uele","Nebobongo Centre Hospital","Centre Hôpital","Publique",2.4619,27.6318,"Combination","Centre Hôpital","Hospital",7.1117710429193
"16","Democratic Republic of the Congo","Haut-Uele","Neisu Centre Hospital","Centre Hôpital","Publique",2.7326,27.4048,"Geonames","Centre Hôpital","Hospital",6.83502934483618
"17","Democratic Republic of the Congo","Haut-Uele","Niangara Hospital","Hôpital Général de Référence","Publique",3.6958,27.8736,"Geonames","Hôpital","Hospital",7.93774565665776
"18","Democratic Republic of the Congo","Haut-Uele","Watsa Hospital","Hôpital Général de Référence","Publique",3.0402,29.5348,"Geonames","Hôpital","Hospital",5.75290067058186
"19","Democratic Republic of the Congo","Ituri","Adi Hospital","Hôpital Général de Référence","Publique",3.403,30.7993,"Other","Hôpital","Hospital",10.2043105014347
"20","Democratic Republic of the Congo","Ituri","Ariwara Hospital","Hôpital Général de Référence","Publique",3.1413,30.7018,"Other","Hôpital","Hospital",9.3980212638489
"21","Democratic Republic of the Congo","Ituri","Aru Hospital","Hôpital Général de Référence","Publique",3.0282,30.6124,"Geonames","Hôpital","Hospital",9.26286193038306
"22","Democratic Republic of the Congo","Ituri","Aungba Hospital","Hôpital Général de Référence","Publique",2.5476,30.5056,"Geonames","Hôpital","Hospital",6.51458813318616
"23","Democratic Republic of the Congo","Ituri","Bambu Hospital","Hôpital Général de Référence","Publique",1.8029,30.2446,"Combination","Hôpital","Hospital",2.61218777671819
"24","Democratic Republic of the Congo","Ituri","Biringi Hospital","Hôpital Général de Référence","Publique",2.8059,30.3353,"Geonames","Hôpital","Hospital",7.53649749647389
"25","Democratic Republic of the Congo","Ituri","Boga Hospital","Hôpital Général de Référence","Publique",1.0299,29.9556,"Other","Hôpital","Hospital",0.729932621188925
"26","Democratic Republic of the Congo","Ituri","Bunia Hospital","Hôpital Général de Référence","Publique",1.5623,30.2515,"Geonames","Hôpital","Hospital",1.94613726114707
"27","Democratic Republic of the Congo","Ituri","Drodro Hospital","Hôpital Général de Référence","Publique",1.7696,30.5326,"Other","Hôpital","Hospital",3.24861300897307
"28","Democratic Republic of the Congo","Ituri","Fataki Hospital","Hôpital Général de Référence","Publique",2.0029,30.5659,"Other","Hôpital","Hospital",4.26009388526783
"29","Democratic Republic of the Congo","Ituri","Jiba Hospital","Hôpital Général de Référence","Publique",1.8822,30.6975,"Other","Hôpital","Hospital",3.78093268729695
"30","Democratic Republic of the Congo","Ituri","Laybo Hospital","Hôpital Général de Référence","Publique",3.2652,30.5663,"Combination","Hôpital","Hospital",10.2746971323613
"31","Democratic Republic of the Congo","Ituri","Logo Hospital","Hôpital Général de Référence","Publique",2.1838,30.9241,"Other","Hôpital","Hospital",4.93042408376098
"32","Democratic Republic of the Congo","Ituri","Lolwa Hospital","Hôpital Général de Référence","Publique",1.2361,29.4659,"Other","Hôpital","Hospital",1.23715919286276
"33","Democratic Republic of the Congo","Ituri","Mahagi Hospital","Hôpital Général de Référence","Publique",2.3028,30.9911,"Geonames","Hôpital","Hospital",4.86446071885274
"34","Democratic Republic of the Congo","Ituri","Mambasa Hospital","Hôpital Général de Référence","Publique",1.3651,29.0353,"Geonames","Hôpital","Hospital",0.0184291508365618
"35","Democratic Republic of the Congo","Ituri","Rethy Hospital","Hôpital Général de Référence","Publique",2.0862,30.8826,"Other","Hôpital","Hospital",4.73857570982432
"36","Democratic Republic of the Congo","Ituri","Rimba Hospital","Hôpital Général de Référence","Publique",2.2203,30.6568,"Other","Hôpital","Hospital",4.28071236633116
"37","Democratic Republic of the Congo","Ituri","Rungu Hospital","Hôpital Général de Référence","Publique",2.953,30.316,"Other","Hôpital","Hospital",8.57103192009128
"38","Democratic Republic of the Congo","Maniema","Bioglodie Centre Hospital","Centre Hôpital","Publique",-2.9356,25.8979,"Combination","Centre Hôpital","Hospital",9.39612019730359
"39","Democratic Republic of the Congo","Maniema","Ferekeni Hospital","Hôpital Général de Référence","Publique",-1.6668,26.1761,"Combination","Hôpital","Hospital",10.1251804198116
"40","Democratic Republic of the Congo","Maniema","Kailo Hospital","Hôpital Général de Référence","Publique",-2.6279,26.1023,"Geonames","Hôpital","Hospital",9.28097647208745
"41","Democratic Republic of the Congo","Maniema","Kalima Hospital","Hôpital Général de Référence","Publique",-2.7064,26.2839,"Geonames","Hôpital","Hospital",8.22861028634512
"42","Democratic Republic of the Congo","Maniema","Kitulizo / BDOM Centre Hospital","Centre Hôpital","Publique",-2.9717,25.9135,"Combination","Centre Hôpital","Hospital",9.3887544470372
"43","Democratic Republic of the Congo","Maniema","Lubutu Hospital","Hôpital Général de Référence","Publique",-0.7421,26.5834,"Geonames","Hôpital","Hospital",5.7034288527653
"44","Democratic Republic of the Congo","Maniema","MSR Centre Hospital","Centre Hôpital","Publique",-2.8582,25.8843,"Combination","Centre Hôpital","Hospital",9.820251505741
"45","Democratic Republic of the Congo","Maniema","Musofu Centre Hospital","Centre Hôpital","Publique",-2.8717,25.9027,"Combination","Centre Hôpital","Hospital",9.68957901059315
"46","Democratic Republic of the Congo","Maniema","Obokote Hospital","Hôpital Général de Référence","Publique",-0.8952,26.2912,"Google Earth","Hôpital","Hospital",6.69410609188711
"47","Democratic Republic of the Congo","Maniema","Pangi Hospital","Hôpital Général de Référence","Publique",-3.1705,26.6315,"Geonames","Hôpital","Hospital",7.75398011174909
"48","Democratic Republic of the Congo","Maniema","Punia Hospital","Hôpital Général de Référence","Publique",-1.4508,26.4289,"Geonames","Hôpital","Hospital",8.30407337961295
"49","Democratic Republic of the Congo","Maniema","SNCC Centre Hospital","Centre Hôpital","Publique",-2.9175,25.9334,"Combination","Centre Hôpital","Hospital",9.38119571443779
"50","Democratic Republic of the Congo","Nord Kivu","Alimbongo Hospital","Hôpital Général de Référence","Publique",-0.3633,29.1831,"Google Earth","Hôpital","Hospital",0.239577695788476
"51","Democratic Republic of the Congo","Nord Kivu","Beni Hospital","Hôpital Général de Référence","Publique",0.4939,29.4653,"Google Earth","Hôpital","Hospital",0
"52","Democratic Republic of the Congo","Nord Kivu","Biena Hospital","Hôpital Général de Référence","Publique",0.3208,28.8865,"Other","Hôpital","Hospital",0.732655110919038
"53","Democratic Republic of the Congo","Nord Kivu","Butembo Hospital","Hôpital Général de Référence","Publique",0.118,29.2227,"Google Earth","Hôpital","Hospital",0.170157993885257
"54","Democratic Republic of the Congo","Nord Kivu","Goma Hospital","Hôpital Général de Référence","Publique",-1.663,29.1906,"Google Earth","Hôpital","Hospital",0
"55","Democratic Republic of the Congo","Nord Kivu","Itebero Hospital","Hôpital Général de Référence","Publique",-1.6759,28.1299,"Google Earth","Hôpital","Hospital",4.21449887301059
"56","Democratic Republic of the Congo","Nord Kivu","Kalunguta Hospital","Hôpital Général de Référence","Publique",0.4881,29.444,"Google Earth","Hôpital","Hospital",0
"57","Democratic Republic of the Congo","Nord Kivu","Kamango Hospital","Hôpital Général de Référence","Publique",0.6165,29.8947,"Google Earth","Hôpital","Hospital",1.00100605361637
"58","Democratic Republic of the Congo","Nord Kivu","Karisimbi Hospital","Hôpital Général de Référence","Publique",-1.6754,29.2357,"Google Earth","Hôpital","Hospital",0.0893809355452974
"59","Democratic Republic of the Congo","Nord Kivu","Katoyi Hospital","Hôpital Général de Référence","Publique",-1.3405,28.7116,"Google Earth","Hôpital","Hospital",1.49403246660406
"60","Democratic Republic of the Congo","Nord Kivu","Katwa Hospital","Hôpital Général de Référence","Publique",0.1164,29.3706,"Google Earth","Hôpital","Hospital",0.0588387519374799
"61","Democratic Republic of the Congo","Nord Kivu","Kayna Hospital","Hôpital Général de Référence","Publique",-0.607,29.166,"Google Earth","Hôpital","Hospital",0.286991658069865
"62","Democratic Republic of the Congo","Nord Kivu","Kibua Hospital","Hôpital Général de Référence","Publique",-1.234,28.4163,"Other","Hôpital","Hospital",2.25296984783278
"63","Democratic Republic of the Congo","Nord Kivu","Kirotshe Hospital","Hôpital Général de Référence","Publique",-1.6123,29.031,"Other","Hôpital","Hospital",0.455955551624691
"64","Democratic Republic of the Congo","Nord Kivu","Kyondo Hospital","Hôpital Général de Référence","Publique",4e-04,29.3991,"Google Earth","Hôpital","Hospital",0.22351913495563
"65","Democratic Republic of the Congo","Nord Kivu","Lubero Hospital","Hôpital Général de Référence","Publique",-0.1537,29.2301,"Google Earth","Hôpital","Hospital",0.282920182245515
"66","Democratic Republic of the Congo","Nord Kivu","Mabalako Hospital","Hôpital Général de Référence","Publique",0.6064,29.314,"Google Earth","Hôpital","Hospital",0
"67","Democratic Republic of the Congo","Nord Kivu","Manguredjipa Hospital","Hôpital Général de Référence","Publique",0.3534,28.7655,"Other","Hôpital","Hospital",1.05905222232705
"68","Democratic Republic of the Congo","Nord Kivu","Masereka Hospital","Hôpital Général de Référence","Publique",-0.1392,29.3143,"Google Earth","Hôpital","Hospital",0.199297323097705
"69","Democratic Republic of the Congo","Nord Kivu","Masisi Hospital","Hôpital Général de Référence","Publique",-1.3973,28.8143,"Google Earth","Hôpital","Hospital",1.14017773741701
"70","Democratic Republic of the Congo","Nord Kivu","Musienene Hospital","Hôpital Général de Référence","Publique",0.017,29.2478,"Google Earth","Hôpital","Hospital",0.10438226766296
"71","Democratic Republic of the Congo","Nord Kivu","Mutwanga Hospital","Hôpital Général de Référence","Publique",0.3383,29.7427,"Google Earth","Hôpital","Hospital",0.348658860277379
"72","Democratic Republic of the Congo","Nord Kivu","Mweso Hospital","Hôpital Général de Référence","Publique",-1.1156,29.0308,"Google Earth","Hôpital","Hospital",1.50968439340927
"73","Democratic Republic of the Congo","Nord Kivu","Oicha Hospital","Hôpital Général de Référence","Publique",0.7028,29.5027,"Google Earth","Hôpital","Hospital",0
"74","Democratic Republic of the Congo","Nord Kivu","Pinga Hospital","Hôpital Général de Référence","Publique",-0.984,28.702,"Google Earth","Hôpital","Hospital",3.3213802050222
"75","Democratic Republic of the Congo","Nord Kivu","Vuhovi Hospital","Hôpital Général de Référence","Publique",0.1426,29.4062,"Other","Hôpital","Hospital",0.0368580962293347
"76","Democratic Republic of the Congo","Nord Kivu","Walikale Hospital","Hôpital Général de Référence","Publique",-1.4281,28.065,"Google Earth","Hôpital","Hospital",3.71103990803887
"77","Democratic Republic of the Congo","Sud Kivu","Bugarula Centre Hospital","Centre Hôpital","Publique",-2.042,29.064,"Combination","Centre Hôpital","Hospital",2.56523163390525
"78","Democratic Republic of the Congo","Sud Kivu","Bunyakiri Hospital","Hôpital Général de Référence","Publique",-2.0791,28.5521,"Combination","Hôpital","Hospital",2.48993974347207
"79","Democratic Republic of the Congo","Sud Kivu","Ciriri Hospital","Hôpital Général de Référence","Publique",-2.5186,28.837,"Combination","Hôpital","Hospital",1.22544250953043
"80","Democratic Republic of the Congo","Sud Kivu","Kadutu Hospital","Hôpital","Publique",-2.5147,28.8522,"Google Earth","Hôpital","Hospital",1.26058546378215
"81","Democratic Republic of the Congo","Sud Kivu","Kakwende Centre Hospital","Centre Hôpital","Publique",-2.8184,28.6864,"Combination","Centre Hôpital","Hospital",0.744109045758221
"82","Democratic Republic of the Congo","Sud Kivu","Kalambi Centre Hospital","Centre Hôpital","Publique",-2.9809,28.516,"Geonames","Centre Hôpital","Hospital",1.45081638194803
"83","Democratic Republic of the Congo","Sud Kivu","Kalehe Hospital","Hôpital Général de Référence","Publique",-2.092,28.9098,"Combination","Hôpital","Hospital",1.71000159759324
"84","Democratic Republic of the Congo","Sud Kivu","Kalonge Hospital","Hôpital Général de Référence","Publique",-2.328,28.746,"Other","Hôpital","Hospital",2.32736207161845
"85","Democratic Republic of the Congo","Sud Kivu","Kalungu Centre Hospital","Centre Hôpital","Publique",-1.7494,28.9956,"Geonames","Centre Hôpital","Hospital",0.797118106791843
"86","Democratic Republic of the Congo","Sud Kivu","Kamituga Hospital","Hôpital Général de Référence","Publique",-3.0675,28.175,"Geonames","Hôpital","Hospital",0.879105446967573
"87","Democratic Republic of the Congo","Sud Kivu","Kaniola Hospital","Hôpital Général de Référence","Publique",-2.5891,28.6128,"Other","Hôpital","Hospital",1.17575657527852
"88","Democratic Republic of the Congo","Sud Kivu","Kasenga Cepac Centre Hospital","Centre Hôpital","Publique",-3.3548,29.1493,"Geonames","Centre Hôpital","Hospital",2.0504900696287
"89","Democratic Republic of the Congo","Sud Kivu","Katshungu Centre Hospital","Centre Hôpital","Publique",-2.4475,27.3827,"Google Earth","Centre Hôpital","Hospital",3.60314891595663
"90","Democratic Republic of the Congo","Sud Kivu","Kihumba Centre Hospital","Centre Hôpital","Publique",-2.2017,29.0445,"Other","Centre Hôpital","Hospital",3.03697208258128
"91","Democratic Republic of the Congo","Sud Kivu","Kiliba CEPAC Centre Hospital","Centre Hôpital","Publique",-3.255,29.203,"Other","Centre Hôpital","Hospital",2.09161973522074
"92","Democratic Republic of the Congo","Sud Kivu","Kitutu Hospital","Hôpital Général de Référence","Publique",-3.3024,28.0993,"Google Earth","Hôpital","Hospital",0.961425189538697
"93","Democratic Republic of the Congo","Sud Kivu","Lemera Hospital","Hôpital Général de Référence","Publique",-3.0406,28.9911,"Combination","Hôpital","Hospital",1.34268627919599
"94","Democratic Republic of the Congo","Sud Kivu","Lulingu Hospital","Hôpital Général de Référence","Publique",-2.333,27.6221,"Combination","Hôpital","Hospital",8.96017317785509
"95","Democratic Republic of the Congo","Sud Kivu","Minova Hospital","Hôpital Général de Référence","Publique",-1.7164,29.0141,"Combination","Hôpital","Hospital",0.707970301468954
"96","Democratic Republic of the Congo","Sud Kivu","Miti-Murhesa Centre Hospital","Centre Hôpital","Publique",-2.3475,28.7827,"Other","Centre Hôpital","Hospital",1.61619904010692
"97","Democratic Republic of the Congo","Sud Kivu","Monvu Hospital","Hôpital Général de Référence","Publique",-2.1661,29.0156,"Geonames","Hôpital","Hospital",2.82535276856198
"98","Democratic Republic of the Congo","Sud Kivu","Muku Centre Hospital","Centre Hôpital","Publique",-2.5371,28.8067,"Combination","Centre Hôpital","Hospital",1.28901253393162
"99","Democratic Republic of the Congo","Sud Kivu","Mulungu Hospital","Hôpital Général de Référence","Publique",-2.9237,27.9314,"Combination","Hôpital","Hospital",11.6211081171425
"100","Democratic Republic of the Congo","Sud Kivu","Muzinzi Hospital","Hôpital Général de Référence","Publique",-2.7221,28.8308,"Combination","Hôpital","Hospital",1.1877157221121
"101","Democratic Republic of the Congo","Sud Kivu","Mwenga Hospital","Hôpital Général de Référence","Publique",-3.0238,28.4431,"Geonames","Hôpital","Hospital",0.0184295622132402
"102","Democratic Republic of the Congo","Sud Kivu","Panzi Hospital","Hôpital Général de Référence","Publique",-2.5265,28.8522,"Google Earth","Hôpital","Hospital",1.23754870802773
"103","Democratic Republic of the Congo","Sud Kivu","Ruzizi Hospital","Hôpital Général de Référence","Publique",-2.9527,29.1173,"Google Earth","Hôpital","Hospital",2.13350418394502
"104","Democratic Republic of the Congo","Sud Kivu","Sange ETAT Centre Hospital","Centre Hôpital","Publique",-3.0339,29.1884,"Geonames","Centre Hôpital","Hospital",2.23332700502345
"105","Democratic Republic of the Congo","Sud Kivu","Shabunda Hospital","Hôpital Général de Référence","Publique",-2.6891,27.3456,"Geonames","Hôpital","Hospital",4.41395424064774
"106","Democratic Republic of the Congo","Sud Kivu","Walungu Hospital","Hôpital Général de Référence","Publique",-2.6189,28.6688,"Geonames","Hôpital","Hospital",0.865170809077335
"107","Democratic Republic of the Congo","Sud Ubangi","Bafwagbogbo Hospital","Hôpital Général de Référence","Publique",1.6779,26.5774,"Other","Hôpital","Hospital",9.38010687708869
"108","Democratic Republic of the Congo","Sud Ubangi","Basali Hospital","Hôpital Général de Référence","Publique",1.7201,23.9844,"Google Earth","Hôpital","Hospital",18.2031626631101
"109","Democratic Republic of the Congo","Sud Ubangi","Bengamisa Hospital","Hôpital Général de Référence","Publique",0.9707,25.2086,"Google Earth","Hôpital","Hospital",9.29208153101608
"110","Democratic Republic of the Congo","Sud Ubangi","Lowa Hospital","Hôpital Général de Référence","Publique",-1.4004,25.8009,"Google Earth","Hôpital","Hospital",10.6398124087024
"111","Democratic Republic of the Congo","Sud Ubangi","Lubunga Hospital","Hôpital Général de Référence","Publique",0.4941,25.1882,"Google Earth","Hôpital","Hospital",8.1583828183825
"112","Democratic Republic of the Congo","Sud Ubangi","Makiso-Kisangani Hospital","Hôpital Général de Référence","Publique",0.5199,25.1862,"Google Earth","Hôpital","Hospital",8.16566708361179
"113","Democratic Republic of the Congo","Sud Ubangi","Opienge Hospital","Hôpital Général de Référence","Publique",0.2413,27.4206,"Google Earth","Hôpital","Hospital",10.2941969659933
"114","Democratic Republic of the Congo","Sud Ubangi","Tshopo Hospital","Hôpital Général de Référence","Publique",0.642,25.1886,"Google Earth","Hôpital","Hospital",8.45754465246764
"115","Democratic Republic of the Congo","Sud Ubangi","Wanierukula Hospital","Hôpital Général de Référence","Publique",0.2012,25.5198,"Google Earth","Hôpital","Hospital",7.5600530048502
"116","Democratic Republic of the Congo","Sud Ubangi","Yabaondo Hospital","Hôpital Général de Référence","Publique",1.108,23.8065,"Google Earth","Hôpital","Hospital",14.6211269543718
"117","Democratic Republic of the Congo","Sud Ubangi","Yahisuli Hospital","Hôpital Général de Référence","Publique",-0.1073,24.0243,"Other","Hôpital","Hospital",15.6373995226069
"118","Democratic Republic of the Congo","Tshopo","Bafwasende Hospital","Hôpital Général de Référence","Publique",1.0101,27.1604,"Geonames","Hôpital","Hospital",4.72802780292958
"119","Democratic Republic of the Congo","Tshopo","Banalia Hospital","Hôpital Général de Référence","Publique",1.547,25.3272,"Geonames","Hôpital","Hospital",10.8462325006055
"120","Democratic Republic of the Congo","Tshopo","Isangi Hospital","Hôpital Général de Référence","Publique",0.7695,24.2495,"Geonames","Hôpital","Hospital",11.1333106703797
"121","Democratic Republic of the Congo","Tshopo","Mandima Hospital","Hôpital Général de Référence","Publique",1.6733,25.9404,"Geonames","Hôpital","Hospital",18.5303422219866
"122","Democratic Republic of the Congo","Tshopo","Mangobo Hospital","Hôpital Général de Référence","Publique",0.6361,25.1161,"Other","Hôpital","Hospital",9.14523633727649
"123","Democratic Republic of the Congo","Tshopo","Opala Hospital","Hôpital Général de Référence","Publique",-0.505,24.2284,"Geonames","Hôpital","Hospital",13.7700555901371
"124","Democratic Republic of the Congo","Tshopo","Ubundu Hospital","Hôpital Général de Référence","Publique",-0.3543,25.4313,"Geonames","Hôpital","Hospital",8.38168441625873
"125","Democratic Republic of the Congo","Tshopo","Yakusu Hospital","Hôpital Général de Référence","Publique",0.5717,25.0263,"Geonames","Hôpital","Hospital",8.55288642005417
"126","Democratic Republic of the Congo","Tshopo","Yaleko Hospital","Hôpital Général de Référence","Publique",0.2175,24.3564,"Geonames","Hôpital","Hospital",11.3935948291686
"127","Uganda","Central","Bishop Ascili Hospital","Hospital","Private not for profit",0.4715,32.8352,"Google Earth","Hospital","Hospital",9.57795559168594
"128","Uganda","Central","Buikwe St. Charles Lwanga Hospital","Hospital","Private not for profit",0.2827,33.0339,"Google Earth","Hospital","Hospital",9.82549774140893
"129","Uganda","Central","Butabika National Referal Hospital","National Referral Hospital","MoH",0.32,32.6575,"Geonames","Referral","Hospital",9.05974147405736
"130","Uganda","Central","Entebbe Hospital","Hospital","MoH",0.052,32.465,"GPS","Hospital","Hospital",9.48108802137726
"131","Uganda","Central","Family Care Hospital","Hospital","Private not for profit",0.3532,32.5626,"Other","Hospital","Hospital",8.83169699263977
"132","Uganda","Central","Gombe Hospital","Hospital","MoH",0.179,32.131,"GPS","Hospital","Hospital",8.88224908577692
"133","Uganda","Central","Kalisizo Hospital","Hospital","MoH",-0.535,31.609,"GPS","Hospital","Hospital",7.40920115992689
"134","Uganda","Central","Kawolo Hospital","Hospital","MoH",0.35,32.9333,"Geonames","Hospital","Hospital",9.32041485829041
"135","Uganda","Central","Kayunga Hospital","Hospital","MoH",0.699,32.9037,"Other","Hospital","Hospital",10.1486343571253
"136","Uganda","Central","Kiboga Hospital","Hospital","MoH",0.911,31.776,"GPS","Hospital","Hospital",8.36494556830685
"137","Uganda","Central","Kibuli Hospital","Hospital","Private not for profit",0.3103,32.5941,"Other","Hospital","Hospital",8.92596216404016
"138","Uganda","Central","Kisubi Hospital","Hospital","Private not for profit",0.1254,32.559,"GPS","Hospital","Hospital",9.28184857819932
"139","Uganda","Central","Kiwoko Hospital","Hospital","Private not for profit",0.8464,32.3531,"Other","Hospital","Hospital",9.60550924920403
"140","Uganda","Central","Lugazi Scoul Hospital","Hospital","Private not for profit",0.3669,32.9425,"Other","Hospital","Hospital",9.31159516418202
"141","Uganda","Central","Masaka Hospital","Hospital","MoH",-0.3445,31.7259,"GPS","Hospital","Hospital",7.135916214569
"142","Uganda","Central","Mengo Hospital","Hospital","Private not for profit",0.3163,32.5609,"Other","Hospital","Hospital",8.8832476325265
"143","Uganda","Central","Mild May Hospital","Hospital","Private not for profit",0.3851,32.476,"Google Earth","Hospital","Hospital",8.91120734259059
"144","Uganda","Central","Mityana Hospital","Hospital","MoH",0.4175,32.0228,"Other","Hospital","Hospital",7.54254468266134
"145","Uganda","Western","Fort Portal Regional Referral Hospital","Regional Referral Hospital","MoH",0.6577,30.2766,"Google Earth","Referral","Hospital",3.09844719892587
"146","Uganda","Northern","Gulu Regional Referral Hospital","Regional Referral Hospital","MoH",2.7794,32.2891,"Google Earth","Referral","Hospital",10.1891414120097
"147","Uganda","Western","Kabale Regional Referal Hospital","Regional Referral Hospital","MoH",-1.2485,29.9891,"Google Earth","Referral","Hospital",3.84266878953907
"148","Uganda","Central","Naggalama Hospital","Hospital","Private not for profit",0.516,32.775,"GPS","Hospital","Hospital",9.46034162115993
"149","Uganda","Central","Naguru - China Uganda Friendship Hospital","Hospital","MoH",0.3292,32.6064,"Google Earth","Hospital","Hospital",8.91562577549474
"150","Uganda","Central","Nakaseke Hospital","Hospital","MoH",0.796,32.436,"GPS","Hospital","Hospital",9.8330986268162
"151","Uganda","Central","Namungoona Orthodox Hospital","Hospital","Private not for profit",0.3393,32.5354,"Other","Hospital","Hospital",8.81482312610714
"152","Uganda","Central","Nkokonjeru Hospital","Hospital","Private not for profit",0.8263,32.9469,"Other","Hospital","Hospital",10.782209354192
"153","Uganda","Central","Nkozi Hospital","Hospital","Private not for profit",0.023,32.014,"GPS","Hospital","Hospital",9.2529867457518
"154","Uganda","Central","Old Kampala Hospital","Hospital","Private not for profit",0.3168,32.5653,"Other","Hospital","Hospital",8.87375085320379
"155","Uganda","Central","Rakai Hospital","Hospital","MoH",-0.707,31.394,"GPS","Hospital","Hospital",7.02093971108876
"156","Uganda","Central","Ruth Gaylord Hospital","Hospital","Private not for profit",0.3922,32.5495,"Google Earth","Hospital","Hospital",8.93467747867815
"157","Uganda","Central","Saidina Abubakar Islamic Hospital","Hospital","Private not for profit",0.4175,32.5371,"Google Earth","Hospital","Hospital",8.99768584564548
"158","Uganda","Central","St. Francis Nyenga Hospital","Hospital","Private not for profit",0.395,33.14,"GPS","Hospital","Hospital",9.58529121715499
"159","Uganda","Central","St. Joseph Kitovu Hospital","Hospital","Private not for profit",-0.3333,31.7667,"Other","Hospital","Hospital",7.2356382579576
"160","Uganda","Central","St. Stephens Mpererwe Hospital","Hospital","Private not for profit",0.309,32.6047,"Google Earth","Hospital","Hospital",8.95379162689299
"161","Uganda","Central","Uganda Matyrs Hospital","Hospital","Private not for profit",0.3375,32.7186,"Other","Hospital","Hospital",9.1091285182263
"162","Uganda","Central","Villa Maria Hospital","Hospital","Private not for profit",-0.33,31.7345,"Google Earth","Hospital","Hospital",7.16838387877717
"163","Uganda","Eastern","Almeca Medicare Hospital","Hospital","Private not for profit",0.47,33.2123,"Combination","Hospital","Hospital",9.6921278488918
"164","Uganda","Eastern","Al-Shafa Medical Centre Hospital","Hospital","Private not for profit",0.4587,33.2175,"Other","Hospital","Hospital",9.67251523275221
"165","Uganda","Eastern","Atutur Hospital","Hospital","MoH",1.422,33.99,"GPS","Hospital","Hospital",12.8453618478356
"166","Uganda","Eastern","Bududa Hospital","Hospital","MoH",0.3772,32.9197,"Geonames","Hospital","Hospital",9.3061174263326
"167","Uganda","Eastern","Bugiri Hospital","Hospital","MoH",0.5758,33.7429,"GPS","Hospital","Hospital",10.3695963755809
"168","Uganda","Eastern","Bukwo General Hospital","Hospital","MoH",1.294,34.7553,"Google Earth","Hospital","Hospital",14.1427290217463
"169","Uganda","Eastern","Buluba Hospital","Hospital","Private not for profit",0.4833,33.4,"Other","Hospital","Hospital",10.41366080895
"170","Uganda","Eastern","Busolwe Hospital","Hospital","MoH",0.8527,33.9283,"GPS","Hospital","Hospital",11.8818879203594
"171","Uganda","Eastern","Buwenge Hospital","Hospital","MoH",0.6481,33.1705,"GPS","Hospital","Hospital",10.1331840823876
"172","Uganda","Eastern","Dabani Hospital","Hospital","Private not for profit",0.4395,34.0516,"GPS","Hospital","Hospital",11.0548023982309
"173","Uganda","Eastern","Iganga Hospital","Hospital","MoH",0.6152,33.4797,"Google Earth","Hospital","Hospital",10.0284566828481
"174","Uganda","Eastern","Kabasa Memorial Hospital","Hospital","Private not for profit",0.8575,33.8926,"GPS","Hospital","Hospital",11.8041897538711
"175","Uganda","Eastern","Kamuli Hospital","Hospital","MoH",0.946,33.118,"GPS","Hospital","Hospital",10.8918878914796
"176","Uganda","Eastern","Kamuli Mission Hospital","Hospital","Private not for profit",0.3526,32.6483,"Google Earth","Hospital","Hospital",8.94946266176127
"177","Uganda","Eastern","Kanginima Hospital","Hospital","Private not for profit",1.202,33.977,"GPS","Hospital","Hospital",12.5982810959047
"178","Uganda","Eastern","Kapchorwa Hospital","Hospital","MoH",1.4054,34.4415,"GPS","Hospital","Hospital",13.0364115810931
"179","Uganda","Eastern","Katakwi Hospital","Hospital","MoH",1.9201,33.9623,"GPS","Hospital","Hospital",15.085927949808
"180","Uganda","Eastern","Kumi Hospital","Hospital","Private not for profit",1.5038,33.9349,"Other","Hospital","Hospital",13.0897791201343
"181","Uganda","Eastern","Lwala Hospital","Hospital","Private not for profit",1.8623,33.2776,"GPS","Hospital","Hospital",13.0617650067542
"182","Uganda","Eastern","Lyantonde Hospital","Hospital","MoH",-0.4031,31.1572,"Other","Hospital","Hospital",5.72661251433615
"183","Uganda","Eastern","Masafu Hospital","Hospital","MoH",0.4159,34.0339,"GPS","Hospital","Hospital",11.1930203205986
"184","Uganda","Northern","Lira Regional Referral Hospital","Regional Referral Hospital","MoH",2.2555,32.9014,"Google Earth","Referral","Hospital",11.6739960407741
"185","Uganda","Eastern","Ngora Freda Carr Hospital","Hospital","Private not for profit",1.443,33.713,"GPS","Hospital","Hospital",13.8491446612714
"186","Uganda","Eastern","Pallisa Hospital","Hospital","MoH",1.1667,33.7068,"GPS","Hospital","Hospital",11.6714009766054
"187","Uganda","Eastern","Mbale Regional Referral Hospital","Regional Referral Hospital","MoH",1.0925,34.1744,"Google Earth","Referral","Hospital",11.9568249351018
"188","Uganda","Eastern","St. Anthony'S Hospital","Hospital","Private not for profit",0.7028,34.1699,"Other","Hospital","Hospital",11.062651884032
"189","Uganda","Eastern","Tororo Hospital","Hospital","MoH",0.7059,34.2001,"GPS","Hospital","Hospital",11.0944881680669
"190","Uganda","Eastern","Tororo St. Anthony Hospital","Hospital","Private not for profit",0.7028,34.1699,"Other","Hospital","Hospital",11.062651884032
"191","Uganda","Northern","Aber Hospital","Hospital","Private not for profit",2.214,32.411,"GPS","Hospital","Hospital",10.2911504049073
"192","Uganda","Northern","Abim Hospital","Hospital","MoH",2.676,33.662,"GPS","Hospital","Hospital",14.852425516987
"193","Uganda","Northern","Adjumani Hospital","Hospital","MoH",2.1369,32.4985,"GPS","Hospital","Hospital",10.949157365022
"194","Uganda","Northern","Amai Community Hospital","Hospital","Private not for profit",1.7935,32.9199,"GPS","Hospital","Hospital",13.6957545133843
"195","Uganda","Northern","Amudat Hospital","Hospital","MoH",1.9534,34.9438,"Google Earth","Hospital","Hospital",16.1943884744825
"196","Uganda","Northern","Amudat Hospital","Hospital","Private not for profit",1.9534,34.9438,"Google Earth","Hospital","Hospital",16.1943884744825
"197","Uganda","Northern","Anaka Hospital","Hospital","MoH",2.5944,31.9633,"Other","Hospital","Hospital",8.99110307350782
"198","Uganda","Northern","Angal Hospital","Hospital","Private not for profit",2.395,31.172,"GPS","Hospital","Hospital",6.7574608091822
"199","Uganda","Northern","Apac Hospital","Hospital","MoH",1.9817,32.5332,"GPS","Hospital","Hospital",11.0579610530213
"200","Uganda","Northern","Arua Hospital","Hospital","MoH",3.0229,30.912,"GPS","Hospital","Hospital",8.15983805924157
"201","Uganda","Western","Mbarara Regional Referral Hospital","Regional Referral Hospital","MoH",-0.6077,30.67,"Google Earth","Referral","Hospital",4.4184882804151
"202","Uganda","Northern","Kaabong Hospital","Hospital","MoH",3.5151,34.1312,"GPS","Hospital","Hospital",15.4021377564754
"203","Uganda","Northern","Kalongo Ambrosoli Memerial Hospital","Hospital","Private not for profit",3.0287,33.3688,"Google Earth","Hospital","Hospital",13.6498074548174
"204","Uganda","Northern","Koboko Hospital","Hospital","MoH",3.4094,30.9594,"GPS","Hospital","Hospital",9.20627085313335
"205","Uganda","Northern","Kuluva Hospital","Hospital","Private not for profit",2.9498,30.9338,"GPS","Hospital","Hospital",7.97086041932695
"206","Uganda","Central","Mubende Regional Referral Hospital","Regional Referral Hospital","MoH",0.5892,31.36,"Google Earth","Referral","Hospital",6.11375914469558
"207","Uganda","Northern","Maracha Hospital","Hospital","Private not for profit",3.2399,30.9214,"GPS","Hospital","Hospital",8.7391274375387
"208","Uganda","Northern","Matany Hospital","Hospital","Private not for profit",2.4474,34.393,"GPS","Hospital","Hospital",16.5705059479223
"209","Uganda","Northern","Moroto Hospital","Hospital","MoH",2.5333,34.7666,"Other","Hospital","Hospital",19.6298920142993
"210","Uganda","Northern","Moyo Hospital","Hospital","MoH",3.6578,31.728,"GPS","Hospital","Hospital",11.6492538861345
"211","Uganda","Northern","Nebbi Hospital","Hospital","MoH",2.48,31.086,"GPS","Hospital","Hospital",6.89261562253956
"212","Uganda","Northern","Nyapea Hospital","Hospital","Private not for profit",2.475,30.943,"GPS","Hospital","Hospital",6.66224692656968
"213","Uganda","Northern","Oriajini Hospital","Hospital","Private not for profit",3.1001,30.9681,"GPS","Hospital","Hospital",8.41111762103386
"214","Uganda","Northern","St. Joseph'S Kitgum Hospital","Hospital","Private not for profit",3.2979,32.8809,"GPS","Hospital","Hospital",12.3019160562423
"215","Uganda","Northern","St. Mary'S Lacor Hospital","Hospital","Private not for profit",2.7684,32.252,"GPS","Hospital","Hospital",10.1004376844965
"216","Uganda","Northern","Yumbe Hospital","Hospital","MoH",3.482,31.251,"GPS","Hospital","Hospital",10.0385965674125
"217","Uganda","Western","Buliisa Hospital","Hospital","MoH",-1.1474,30.178,"Google Earth","Hospital","Hospital",4.56459331976461
"218","Uganda","Western","Bundibugyo Hospital","Hospital","MoH",0.8333,30.25,"Other","Hospital","Hospital",3.19781000612826
"219","Uganda","Western","Bwera Hospital","Hospital","MoH",0.036,29.761,"GPS","Hospital","Hospital",1.13598664918695
"220","Uganda","Western","Bwindi Community Hospital","Hospital","Private not for profit",-0.948,29.6208,"Combination","Hospital","Hospital",3.44076761596571
"221","Uganda","Western","Comboni Hospital","Hospital","Private not for profit",-0.5407,30.1891,"Google Earth","Hospital","Hospital",3.25024454812013
"222","Uganda","Central","Mulago National Refferal Hospital","National Referral Hospital","MoH",0.35,32.5833,"Other","Referral","Hospital",8.85024988990583
"223","Uganda","Western","Hoima Hospital","Hospital","MoH",1.433,31.335,"GPS","Hospital","Hospital",6.72918885155906
"224","Uganda","Western","Ibanda Hospital","Hospital","Private not for profit",-0.1539,30.5319,"Other","Hospital","Hospital",4.40473379382352
"225","Uganda","Western","Ishaka Adventist Hospital","Hospital","Private not for profit",-0.543,30.1386,"Google Earth","Hospital","Hospital",3.13133234876214
"226","Uganda","Western","Itojo Hospital","Hospital","MoH",-0.803,30.293,"GPS","Hospital","Hospital",4.46367923331983
"227","Uganda","Central","Mulago Old National Referal Hospital","Regional Referral Hospital","MoH",0.3467,32.5762,"Other","Referral","Hospital",8.85404861167447
"228","Uganda","Western","Kabarole COU Hospital","Hospital","Private not for profit",0.651,30.269,"GPS","Hospital","Hospital",3.07989515073717
"229","Uganda","Western","Kagadi Hospital","Hospital","MoH",0.951,30.806,"GPS","Hospital","Hospital",5.22815071919351
"230","Uganda","Western","Kagando Hospital","Hospital","Private not for profit",0.025,29.891,"GPS","Hospital","Hospital",1.62529749280468
"231","Uganda","Western","Kambuga Hospital","Hospital","MoH",-0.832,29.772,"GPS","Hospital","Hospital",4.47783190852008
"232","Uganda","Western","Kilembe Hospital","Hospital","Private not for profit",0.205,30.01,"GPS","Hospital","Hospital",2.39061206790889
"233","Uganda","Western","Kiryandongo Hospital","Hospital","MoH",1.8802,32.0692,"GPS","Hospital","Hospital",9.56550014414973
"234","Uganda","Western","Kisiizi Hospital","Hospital","Private not for profit",-0.9886,29.9488,"GPS","Hospital","Hospital",4.13529690234494
"235","Uganda","Western","Kisoro Hospital","Hospital","MoH",-1.277,29.684,"GPS","Hospital","Hospital",2.78595697521828
"236","Uganda","Western","Kitagata Hospital","Hospital","MoH",-0.6735,30.1525,"Other","Hospital","Hospital",3.51317759356519
"237","Uganda","Western","Kyenjojo Hospital","Hospital","MoH",0.639,30.623,"GPS","Hospital","Hospital",3.97936302860462
"238","Uganda","Western","Masindi General Hospital","Hospital","MoH",1.6854,31.7266,"Google Earth","Hospital","Hospital",8.200385392045
"239","Uganda","Eastern","Soroti Regional Referral Hospital","Regional Referral Hospital","MoH",1.7301,33.6238,"Google Earth","Referral","Hospital",14.0275882006855
"240","Uganda","Western","Mutolere Hospital","Hospital","Private not for profit",-1.258,29.719,"GPS","Hospital","Hospital",3.30699398317879
"241","Uganda","Western","Nyakibale Hospital","Hospital","Private not for profit",-0.804,29.926,"GPS","Hospital","Hospital",4.64513435979871
"242","Uganda","Western","Rugarama Hospital","Hospital","Private not for profit",-1.237,29.975,"GPS","Hospital","Hospital",3.79797232547547
"243","Uganda","Western","Ruharo Mission Hospital","Hospital","Private not for profit",-0.613,30.63,"GPS","Hospital","Hospital",4.31709159579268
"244","Uganda","Western","Rushere Community Hospital","Hospital","Private not for profit",-0.2367,30.9611,"Other","Hospital","Hospital",5.96455144316223
"245","Uganda","Western","Tumu Hospital","Hospital","Private not for profit",-1.1466,30.1779,"Google Earth","Hospital","Hospital",4.56459331976461
"246","Uganda","Western","Virika Hospital","Hospital","Private not for profit",0.6332,30.2783,"GPS","Hospital","Hospital",3.14514662349429
"247","Uganda","Eastern","Jinja Regional Referral Hospital","Hospital","MoH",0.4302,33.2108,"Other","Hospital","Hospital",9.67014978975071
"248","Rwanda","East","Gahini District Hospital","District Hospital","Public",-1.8407,30.4832,"GPS","Hospital","Hospital",3.20354916330626
"249","Rwanda","East","Kibungo Referral Hospital","Referral Hospital","Public",-2.1659,30.5394,"GPS","Referral","Hospital",3.47360002182598
"250","Rwanda","East","Kirehe District Hospital","District Hospital","Public",-2.2674,30.6536,"GPS","Hospital","Hospital",3.72174275951713
"251","Rwanda","East","Kiziguro District Hospital","District Hospital","Public",-1.7666,30.3848,"GPS","Hospital","Hospital",3.33432743464645
"252","Rwanda","East","Ngarama District Hospital","District Hospital","Public",-1.546,30.2429,"GPS","Hospital","Hospital",3.45984078389173
"253","Rwanda","East","Nyagatare District Hospital","District Hospital","Public",-1.2981,30.3262,"GPS","Hospital","Hospital",4.04660916975646
"254","Rwanda","East","Nyamata District Hospital","District Hospital","Public",-2.1384,30.0799,"GPS","Hospital","Hospital",2.79329770503108
"255","Rwanda","East","Rwamagana Provincial Hospital","Provincial Hospital","Public",-1.9503,30.4331,"GPS","Hospital","Hospital",2.97532924616513
"256","Rwanda","East","Rwinkwavu District Hospital","District Hospital","Public",-1.964,30.6141,"GPS","Hospital","Hospital",3.43120615780256
"257","Rwanda","Kigali City","Caraes Ndera National Referral Hospital","National Referral Hospital","Public",-1.9547,30.169,"GPS","Referral","Hospital",2.56957604688502
"258","Rwanda","Kigali City","CHK/CHUK National Referral Hospital","National Referral Hospital","Public",-1.9565,30.0604,"GPS","Referral","Hospital",2.43092370291221
"259","Rwanda","Kigali City","Kacyiru District Hospital","District Hospital","Public",-1.9331,30.0752,"GPS","Hospital","Hospital",2.45431607661654
"260","Rwanda","Kigali City","Kibagabaga District Hospital","District Hospital","Public",-1.9308,30.112,"GPS","Hospital","Hospital",2.51860923349917
"261","Rwanda","Kigali City","King Faisal National Referral Hospital","National Referral Hospital","Public",-1.9439,30.0951,"GPS","Referral","Hospital",2.4565190007666
"262","Rwanda","Kigali City","Masaka District Hospital","District Hospital","Public",-1.9956,30.1913,"GPS","Hospital","Hospital",2.60811267056208
"263","Rwanda","Kigali City","Muhima District Hospital","District Hospital","Public",-1.9367,30.0585,"GPS","Hospital","Hospital",2.41099784483124
"264","Rwanda","North","Butaro District Hospital","District Hospital","Public",-1.4089,29.8366,"GPS","Hospital","Hospital",2.30677839410262
"265","Rwanda","North","Byumba District Hospital","District Hospital","Public",-1.5893,30.0551,"GPS","Hospital","Hospital",2.55767796887769
"266","Rwanda","North","Kinihira Provincial Hospital","Provincial Hospital","Public",-1.6619,29.9886,"GPS","Hospital","Hospital",2.27133378097319
"267","Rwanda","North","Nemba District Hospital","District Hospital","Public",-1.6377,29.7867,"GPS","Hospital","Hospital",1.89782512970367
"268","Rwanda","North","Ruhengeri Referral Hospital","Referral Hospital","Public",-1.5058,29.6367,"GPS","Referral","Hospital",1.61700993358772
"269","Rwanda","North","Ruli District Hospital","District Hospital","Public",-1.8296,29.8494,"GPS","Hospital","Hospital",2.48036474095613
"270","Rwanda","North","Rutongo District Hospital","District Hospital","Public",-1.8148,30.0598,"GPS","Hospital","Hospital",2.63016733282545
"271","Rwanda","South","Butare CHU National Referral Hospital","National Referral Hospital","Public",-2.612,29.7352,"GPS","Referral","Hospital",3.38504527064363
"272","Rwanda","South","Gakoma District Hospital","District Hospital","Public",-2.3497,29.9177,"GPS","Hospital","Hospital",3.52205737920392
"273","Rwanda","South","Gitwe District Hospital","District Hospital","Public",-2.247,29.6893,"GPS","Hospital","Hospital",3.18811022312795
"274","Rwanda","South","Kabgayi District Hospital","District Hospital","Public",-2.1045,29.7506,"GPS","Hospital","Hospital",2.73042400390922
"275","Rwanda","South","Kabutare District Hospital","District Hospital","Public",-2.6073,29.7473,"GPS","Hospital","Hospital",3.37197661702131
"276","Rwanda","South","Kaduha District Hospital","District Hospital","Public",-2.3333,29.5262,"GPS","Hospital","Hospital",3.3354612444751
"277","Rwanda","South","Kibilizi District Hospital","District Hospital","Public",-2.6486,29.7834,"GPS","Hospital","Hospital",3.54908316543764
"278","Rwanda","South","Kigeme District Hospital","District Hospital","Public",-2.4793,29.5258,"GPS","Hospital","Hospital",3.902396989469
"279","Rwanda","South","Munini District Hospital","District Hospital","Public",-2.7134,29.5355,"GPS","Hospital","Hospital",4.11688800631428
"280","Rwanda","South","Nyanza District Hospital","District Hospital","Public",-2.3526,29.7493,"GPS","Hospital","Hospital",3.11342410030644
"281","Rwanda","South","Remera Rukoma District Hospital","District Hospital","Public",-1.9387,29.9099,"GPS","Hospital","Hospital",2.81889657623481
"282","Rwanda","South","Ruhango Provincial Hospital","Provincial Hospital","Public",-2.1937,29.9055,"GPS","Hospital","Hospital",3.02847276321881
"283","Rwanda","West","Bushenge Provincial Hospital","Provincial Hospital","Public",-2.4451,28.9858,"GPS","Hospital","Hospital",2.57095548086098
"284","Rwanda","West","Gihundwe District Hospital","District Hospital","Public",-2.483,28.9147,"GPS","Hospital","Hospital",2.33458913106847
"285","Rwanda","West","Gisenyi District Hospital","District Hospital","Public",-1.7021,29.2623,"GPS","Hospital","Hospital",1.07557927560249
"286","Rwanda","West","Kabaya District Hospital","District Hospital","Public",-1.7472,29.5373,"GPS","Hospital","Hospital",1.73255592461526
"287","Rwanda","West","Kibogora District Hospital","District Hospital","Public",-2.3262,29.1322,"GPS","Hospital","Hospital",3.03699887743258
"288","Rwanda","West","Kibuye Referral Hospital","Referral Hospital","Public",-2.067,29.3463,"GPS","Referral","Hospital",2.44081803720103
"289","Rwanda","West","Kirinda District Hospital","District Hospital","Public",-1.9349,29.6253,"GPS","Hospital","Hospital",2.27178992634245
"290","Rwanda","West","Mibilizi District Hospital","District Hospital","Public",-2.5676,28.9537,"GPS","Hospital","Hospital",2.49219205946
"291","Rwanda","West","Mugonero District Hospital","District Hospital","Public",-2.1808,29.2927,"GPS","Hospital","Hospital",2.7691674247093
"292","Rwanda","West","Muhororo District Hospital","District Hospital","Public",-1.9349,29.6253,"GPS","Hospital","Hospital",2.27178992634245
"293","Rwanda","West","Murunda District Hospital","District Hospital","Public",-1.9068,29.3761,"GPS","Hospital","Hospital",1.84832766589667
"294","Rwanda","West","Shyira District Hospital","District Hospital","Public",-1.682,29.6291,"GPS","Hospital","Hospital",1.90387965537568
"295","South Sudan","Central Equatoria","Abegi Primary Hospital","Primary Health Care Unit","MoH",4.0131,30.5646,"GPS",NA,NA,10.9071865632754
"296","South Sudan","Central Equatoria","Aboroto Primary Hospital","Primary Health Care Unit","MoH",3.6604,30.7097,"Geonames",NA,NA,11.6847440823473
"297","South Sudan","Central Equatoria","Adra Primary Hospital","Primary Health Care Unit","MoH",5.434,31.7504,"GPS",NA,NA,15.9302748755635
"298","South Sudan","Central Equatoria","Agonyakiri Primary Hospital","Primary Health Care Unit","MoH",3.9285,30.5144,"GPS",NA,NA,10.851389312553
"299","South Sudan","Central Equatoria","Aic Buluk Primary Hospital","Primary Health Care Unit","MoH",4.848,31.5931,"GPS",NA,NA,14.1473491753656
"300","South Sudan","Central Equatoria","Ajio Primary Hospital","Primary Health Care Unit","MoH",3.8422,31.1954,"Geonames",NA,NA,12.7370368871655
"301","South Sudan","Central Equatoria","Ajira Primary Hospital","Primary Health Care Unit","MoH",3.8521,31.6561,"GPS",NA,NA,13.3613215448801
"302","South Sudan","Central Equatoria","Aken Well Primary Hospital","Primary Health Care Unit","MoH",5.9072,30.8206,"GPS",NA,NA,18.3713792788783
"303","South Sudan","Central Equatoria","Aloto Primary Hospital","Primary Health Care Centre","MoH",3.7495,30.625,"GPS",NA,NA,12.412216310616
"304","South Sudan","Central Equatoria","Angebi Primary Hospital","Primary Health Care Unit","MoH",4.6088,29.9776,"GPS",NA,NA,13.3409516347973
"305","South Sudan","Central Equatoria","Aru Primary Hospital","Primary Health Care Unit","MoH",4.3635,31.9846,"GPS",NA,NA,14.2438128731886
"306","South Sudan","Central Equatoria","Atiit Primary Hospital","Primary Health Care Unit","MoH",5.8957,30.7717,"GPS",NA,NA,18.1196169273632
"307","South Sudan","Central Equatoria","Bamurey Primary Hospital","Primary Health Care Centre","MoH",3.6683,31.5482,"Geonames",NA,NA,12.4352846009195
"308","South Sudan","Central Equatoria","Bandame Primary Hospital","Primary Health Care Unit","MoH",4.323,30.2864,"GPS",NA,NA,12.2819057989783
"309","South Sudan","Central Equatoria","Bekat Primary Hospital","Primary Health Care Unit","MoH",5.6405,31.6871,"GPS",NA,NA,17.1907288279808
"310","South Sudan","Central Equatoria","Belpham Medical Hospital","Primary Health Care Centre","MoH",4.9119,31.5988,"Geonames",NA,NA,14.1994725162195
"311","South Sudan","Central Equatoria","Bereka Primary Hospital","Primary Health Care Unit","MoH",4.3985,31.0418,"GPS",NA,NA,12.5410963451968
"312","South Sudan","Central Equatoria","Bilinang Primary Hospital","Primary Health Care Unit","MoH",4.8543,31.791,"GPS",NA,NA,14.586834454229
"313","South Sudan","Central Equatoria","Bilingi Primary Hospital","Primary Health Care Unit","MoH",4.9033,31.3799,"GPS",NA,NA,14.4589305111899
"314","South Sudan","Central Equatoria","Bori Aringa Primary Hospital","Primary Health Care Unit","MoH",5.661,31.6827,"GPS",NA,NA,17.0320578448007
"315","South Sudan","Central Equatoria","Bori Primary Hospital","Primary Health Care Centre","MoH",3.7738,31.5102,"GPS",NA,NA,12.8902586428399
"316","South Sudan","Central Equatoria","Boroboro Primary Hospital","Primary Health Care Unit","MoH",3.8554,31.3823,"Geonames",NA,NA,12.8097589298704
"317","South Sudan","Central Equatoria","Buko Primary Hospital","Primary Health Care Unit","MoH",5.1807,31.2734,"Geonames",NA,NA,16.7528422669322
"318","South Sudan","Central Equatoria","Bungu Primary Hospital","Primary Health Care Unit","MoH",4.6644,31.3961,"Geonames",NA,NA,13.4853929389094
"319","South Sudan","Central Equatoria","Bura Primary Hospital","Primary Health Care Unit","MoH",5.4459,31.3774,"GPS",NA,NA,17.1416972030507
"320","South Sudan","Central Equatoria","Dari _Bari Primary Hospital","Primary Health Care Unit","MoH",5.1664,31.5866,"GPS",NA,NA,15.2577475443049
"321","South Sudan","Central Equatoria","Dari Tali Primary Hospital","Primary Health Care Unit","MoH",6.0059,30.7556,"GPS",NA,NA,18.4382489834745
"322","South Sudan","Central Equatoria","Darsuk Primary Hospital","Primary Health Care Unit","MoH",5.0617,31.3133,"GPS",NA,NA,15.4972170390281
"323","South Sudan","Central Equatoria","Digala Primary Hospital","Primary Health Care Unit","MoH",5.4351,31.7494,"Geonames",NA,NA,15.8956430310351
"324","South Sudan","Central Equatoria","Dimo 1 Primary Hospital","Primary Health Care Unit","MoH",4.2339,30.674,"GPS",NA,NA,12.0711188447604
"325","South Sudan","Central Equatoria","Dokuni Primary Hospital","Primary Health Care Unit","MoH",4.1246,30.9578,"Geonames",NA,NA,12.0379151327054
"326","South Sudan","Central Equatoria","Dongoro Primary Hospital","Primary Health Care Unit","MoH",4.0457,31.1784,"GPS",NA,NA,12.9301326881279
"327","South Sudan","Central Equatoria","Dukudu-Olo Primary Hospital","Primary Health Care Centre","MoH",4.5907,29.8636,"GPS",NA,NA,13.6250246912011
"328","South Sudan","Central Equatoria","Espiscapal Church Primary Hospital","Primary Health Care Unit","FBO/NGO",4.0949,30.6654,"GPS",NA,NA,11.214092512593
"329","South Sudan","Central Equatoria","Fifty Eight Mile Primary Hospital","Primary Health Care Unit","MoH",4.3684,31.1146,"GPS",NA,NA,12.4818465471201
"330","South Sudan","Central Equatoria","Gabat Primary Hospital","Primary Health Care Unit","MoH",4.2544,31.0003,"Geonames",NA,NA,12.1239332404729
"331","South Sudan","Central Equatoria","Ganji Primary Hospital","Primary Health Care Centre","MoH",4.4543,31.2098,"Geonames",NA,NA,12.7907876911768
"332","South Sudan","Central Equatoria","Gbotoro Primary Hospital","Primary Health Care Unit","MoH",4.1077,31.0924,"GPS",NA,NA,13.4714386408319
"333","South Sudan","Central Equatoria","Gemaiza Primary Hospital","Primary Health Care Unit","MoH",5.6794,31.7972,"GPS",NA,NA,16.5295653895553
"334","South Sudan","Central Equatoria","Genesis Medical Care Primary Hospital","Primary Health Care Centre","MoH",3.8489,31.6582,"Geonames",NA,NA,13.3306050762354
"335","South Sudan","Central Equatoria","Geri Primary Hospital","Primary Health Care Unit","MoH",3.8312,30.946,"Geonames",NA,NA,12.2385164641999
"336","South Sudan","Central Equatoria","Ghabat Primary Hospital","Primary Health Care Unit","MoH",4.8663,31.5455,"GPS",NA,NA,14.1389497902201
"337","South Sudan","Central Equatoria","Gimora Primary Hospital","Primary Health Care Unit","MoH",4.8777,31.5679,"GPS",NA,NA,14.1653012596017
"338","South Sudan","Central Equatoria","Gimoro Primary Hospital","Primary Health Care Unit","MoH",5.166,31.1418,"GPS",NA,NA,16.6203091821446
"339","South Sudan","Central Equatoria","Gimunu Primary Hospital","Primary Health Care Unit","MoH",4.1235,30.7682,"GPS",NA,NA,11.4840228385066
"340","South Sudan","Central Equatoria","Ginyabio Primary Hospital","Primary Health Care Unit","MoH",3.9799,30.9695,"GPS",NA,NA,12.7647264164058
"341","South Sudan","Central Equatoria","Godoru Primary Hospital","Primary Health Care Centre","MoH",3.9385,31.5006,"Geonames",NA,NA,13.7839396192675
"342","South Sudan","Central Equatoria","Goja Primary Hospital","Primary Health Care Unit","MoH",4.0064,30.6363,"GPS",NA,NA,11.2263064954774
"343","South Sudan","Central Equatoria","Goli Primary Hospital","Primary Health Care Unit","MoH",4.2016,30.4496,"GPS",NA,NA,11.8129657055151
"344","South Sudan","Central Equatoria","Gondokoro Main Land Primary Hospital","Primary Health Care Unit","MoH",4.908,31.6628,"GPS",NA,NA,14.5350931833551
"345","South Sudan","Central Equatoria","Gondokoro Primary Hospital","Primary Health Care Unit","MoH",4.9128,31.6534,"GPS",NA,NA,14.5619857058652
"346","South Sudan","Central Equatoria","Good Sheperd Clinic Primary Hospital","Primary Health Care Centre","MoH",4.8592,31.6088,"GPS",NA,NA,14.1734531163778
"347","South Sudan","Central Equatoria","Gorom Primary Hospital","Primary Health Care Unit","MoH",4.7271,31.593,"GPS",NA,NA,14.4064216393398
"348","South Sudan","Central Equatoria","Gudele (107) Primary Hospital","Primary Health Care Unit","MoH",4.8662,31.5619,"GPS",NA,NA,14.1389497902201
"349","South Sudan","Central Equatoria","Gudele Bk 4 Primary Hospital","Primary Health Care Unit","MoH",4.8641,31.5541,"GPS",NA,NA,14.133194135499
"350","South Sudan","Central Equatoria","Gudele Primary Hospital","Primary Health Care Unit","MoH",4.8742,31.5505,"GPS",NA,NA,14.160839702873
"351","South Sudan","Central Equatoria","Gugudu Primary Hospital","Primary Health Care Unit","MoH",5.1114,31.375,"Geonames",NA,NA,16.6065337749709
"352","South Sudan","Central Equatoria","Gulukuk Primary Hospital","Primary Health Care Unit","MoH",5.4351,31.537,"Geonames",NA,NA,16.4678639074819
"353","South Sudan","Central Equatoria","Gumbiri Primary Hospital","Primary Health Care Unit","MoH",4.159,30.8615,"Geonames",NA,NA,11.7256386638135
"354","South Sudan","Central Equatoria","Gumbo Primary Hospital","Primary Health Care Unit","MoH",4.8149,31.6227,"GPS",NA,NA,14.1795314471374
"355","South Sudan","Central Equatoria","Gurei Primary Hospital","Primary Health Care Unit","MoH",4.8729,31.5121,"Google Earth",NA,NA,14.1611899143539
"356","South Sudan","Central Equatoria","Gurujo Primary Hospital","Primary Health Care Unit","MoH",4.0627,31.1348,"GPS",NA,NA,12.7764073158765
"357","South Sudan","Central Equatoria","Gurulotogu Primary Hospital","Primary Health Care Unit","MoH",5.1984,31.1993,"GPS",NA,NA,16.3870016498419
"358","South Sudan","Central Equatoria","Gwadiang West Primary Hospital","Primary Health Care Unit","MoH",4.8119,31.5668,"GPS",NA,NA,14.0941451541699
"359","South Sudan","Central Equatoria","Hai Jebel Primary Hospital","Primary Health Care Unit","MoH",3.5426,30.8749,"Geonames",NA,NA,10.8645040234293
"360","South Sudan","Central Equatoria","Iliangari Primary Hospital","Primary Health Care Unit","MoH",4.6755,32.0362,"Google Earth",NA,NA,15.1743413404763
"361","South Sudan","Central Equatoria","Ilyangiri Primary Hospital","Primary Health Care Unit","MoH",4.6769,32.0356,"GPS",NA,NA,15.1743413404763
"362","South Sudan","Central Equatoria","Jabor Primary Hospital","Primary Health Care Unit","MoH",5.1522,31.8099,"GPS",NA,NA,15.4131920252091
"363","South Sudan","Central Equatoria","Jai Primary Hospital","Primary Health Care Unit","MoH",5.5382,31.8286,"GPS",NA,NA,16.1702943229435
"364","South Sudan","Central Equatoria","Jalite Gikokue Primary Hospital","Primary Health Care Unit","MoH",4.6894,31.8575,"GPS",NA,NA,14.7142171123003
"365","South Sudan","Central Equatoria","Jamara Primary Hospital","Primary Health Care Centre","MoH",4.0473,30.9824,"GPS",NA,NA,12.2933014558124
"366","South Sudan","Central Equatoria","Jandoru Primary Hospital","Primary Health Care Unit","MoH",4.6862,31.5804,"GPS",NA,NA,14.4250217715126
"367","South Sudan","Central Equatoria","Jebel Lokiyoro Primary Hospital","Primary Health Care Unit","MoH",4.9716,31.5649,"GPS",NA,NA,14.4289146594257
"368","South Sudan","Central Equatoria","Jobem Primary Hospital","Primary Health Care Unit","MoH",5.3835,31.6478,"GPS",NA,NA,15.9426000641932
"369","South Sudan","Central Equatoria","Jokaki Primary Hospital","Primary Health Care Unit","MoH",4.9925,31.8677,"GPS",NA,NA,15.1488985633065
"370","South Sudan","Central Equatoria","Jokari Primary Hospital","Primary Health Care Unit","MoH",5.3176,31.0463,"GPS",NA,NA,16.1183138222073
"371","South Sudan","Central Equatoria","Jombu Primary Hospital","Primary Health Care Unit","MoH",3.8114,30.7805,"GPS",NA,NA,11.7114021158135
"372","South Sudan","Central Equatoria","Jondale Primary Hospital","Primary Health Care Unit","MoH",3.8036,31.4297,"GPS",NA,NA,12.6230225881739
"373","South Sudan","Central Equatoria","Jonkok Payaya Primary Hospital","Primary Health Care Unit","MoH",5.4253,31.1615,"GPS",NA,NA,16.6955252134894
"374","South Sudan","Central Equatoria","Jonkok Primary Hospital","Primary Health Care Unit","MoH",5.2916,31.0249,"GPS",NA,NA,15.908362268904
"375","South Sudan","Central Equatoria","Juba Gureyi Primary Hospital","Primary Health Care Unit","MoH",4.8667,31.5185,"GPS",NA,NA,14.1650269363757
"376","South Sudan","Central Equatoria","Juba State Hospital","State Hospital","MoH",4.8495,31.5915,"Geonames",NA,NA,14.1273211865904
"377","South Sudan","Central Equatoria","Juba Teaching Hospital","Teaching Hospital","MoH",4.8509,31.6082,"GPS",NA,NA,14.1542388029991
"378","South Sudan","Central Equatoria","Kabo Primary Hospital","Primary Health Care Unit","MoH",4.9827,31.5276,"GPS",NA,NA,14.6219223058732
"379","South Sudan","Central Equatoria","Kagelu Primary Hospital","Primary Health Care Unit","MoH",4.0518,30.6121,"GPS",NA,NA,11.0562885714338
"380","South Sudan","Central Equatoria","Kagwada Primary Hospital","Primary Health Care Unit","MoH",4.4542,31.2098,"GPS",NA,NA,12.7907876911768
"381","South Sudan","Central Equatoria","Kajiko Primary Hospital","Primary Health Care Unit","MoH",3.8512,30.599,"GPS",NA,NA,11.7940131977062
"382","South Sudan","Central Equatoria","Kajokeji County Hospital","County Hospital","MoH",3.8523,31.6568,"GPS",NA,NA,13.3613215448801
"383","South Sudan","Central Equatoria","Kala Primary Hospital","Primary Health Care Unit","MoH",3.9733,31.294,"Geonames",NA,NA,13.2559205234514
"384","South Sudan","Central Equatoria","Kamsuk Primary Hospital","Primary Health Care Centre","MoH",4.0109,31.5351,"Geonames",NA,NA,13.9364188770465
"385","South Sudan","Central Equatoria","Kangai Primary Hospital","Primary Health Care Unit","MoH",3.6874,30.6429,"Geonames",NA,NA,11.9959749081561
"386","South Sudan","Central Equatoria","Karpeto Primary Hospital","Primary Health Care Unit","MoH",4.1229,31.7023,"Geonames",NA,NA,14.7899129713602
"387","South Sudan","Central Equatoria","Kasurak Primary Hospital","Primary Health Care Unit","MoH",3.8627,31.5388,"GPS",NA,NA,13.4888988731284
"388","South Sudan","Central Equatoria","Katigiri Primary Hospital","Primary Health Care Centre","MoH",4.8935,30.8317,"GPS",NA,NA,14.2653307494096
"389","South Sudan","Central Equatoria","Kator Primary Hospital","Primary Health Care Centre","MoH",4.831,31.5965,"Geonames",NA,NA,14.1539718670094
"390","South Sudan","Central Equatoria","Kator Sacret Hospital","Primary Health Care Unit","MoH",4.8251,31.5923,"GPS",NA,NA,14.1539718670094
"391","South Sudan","Central Equatoria","Kawari Primary Hospital","Primary Health Care Unit","MoH",5.3939,31.1092,"GPS",NA,NA,16.3267550015829
"392","South Sudan","Central Equatoria","Kaya Primary Hospital","Primary Health Care Unit","MoH",3.55,30.88,"Geonames",NA,NA,10.8187835198598
"393","South Sudan","Central Equatoria","Kejiko Primary Hospital","Primary Health Care Unit","MoH",3.8414,30.6044,"Geonames",NA,NA,11.8669337457935
"394","South Sudan","Central Equatoria","Kelang Primary Hospital","Primary Health Care Unit","MoH",4.3741,31.9583,"GPS",NA,NA,14.2792110183172
"395","South Sudan","Central Equatoria","Kendila Primary Hospital","Primary Health Care Unit","MoH",3.7564,30.8918,"GPS",NA,NA,11.7496693991638
"396","South Sudan","Central Equatoria","Kenyi Primary Hospital","Primary Health Care Unit","MoH",4.2065,30.913,"GPS",NA,NA,11.8747242389228
"397","South Sudan","Central Equatoria","Kera Primary Hospital","Primary Health Care Centre","MoH",4.893,30.8339,"Geonames",NA,NA,14.2557388052421
"398","South Sudan","Central Equatoria","Kergulu Primary Hospital","Primary Health Care Unit","MoH",4.0519,30.6126,"Geonames",NA,NA,11.0562885714338
"399","South Sudan","Central Equatoria","Kerit- Nyumba Primary Hospital","Primary Health Care Unit","MoH",5.8548,30.8452,"Geonames",NA,NA,18.7052339615513
"400","South Sudan","Central Equatoria","Kerwa _2 Primary Hospital","Primary Health Care Unit","MoH",3.8515,31.6559,"GPS",NA,NA,13.3613215448801
"401","South Sudan","Central Equatoria","Kerwa 1 Primary Hospital","Primary Health Care Unit","MoH",3.7262,31.5823,"GPS",NA,NA,12.8238613241274
"402","South Sudan","Central Equatoria","Kigwo Primary Hospital","Primary Health Care Unit","MoH",3.8698,31.7391,"GPS",NA,NA,13.5876877320077
"403","South Sudan","Central Equatoria","Kiju Primary Hospital","Primary Health Care Unit","MoH",4.0154,31.1982,"GPS",NA,NA,13.1484181896612
"404","South Sudan","Central Equatoria","Kimba Primary Hospital","Primary Health Care Unit","MoH",3.5797,30.8525,"GPS",NA,NA,10.8610206683877
"405","South Sudan","Central Equatoria","Kimu Primary Hospital","Primary Health Care Unit","MoH",4.865,31.5629,"GPS",NA,NA,14.1389497902201
"406","South Sudan","Central Equatoria","Kinyiba Primary Hospital","Primary Health Care Unit","MoH",3.7342,31.6348,"GPS",NA,NA,12.9556951088037
"407","South Sudan","Central Equatoria","Kiri Primary Hospital","Primary Health Care Unit","MoH",3.7703,31.635,"GPS",NA,NA,13.1399919396593
"408","South Sudan","Central Equatoria","Kirikwa Primary Hospital","Primary Health Care Unit","MoH",4.1431,30.425,"GPS",NA,NA,11.961706355712
"409","South Sudan","Central Equatoria","Kirikwat Primary Hospital","Primary Health Care Unit","MoH",4.1447,30.9092,"GPS",NA,NA,11.8801907815775
"410","South Sudan","Central Equatoria","Kit One Primary Hospital","Primary Health Care Unit","MoH",4.2135,31.9951,"Geonames",NA,NA,14.0587316818179
"411","South Sudan","Central Equatoria","Kiu Primary Hospital","Primary Health Care Unit","MoH",6.2048,30.6006,"GPS",NA,NA,19.2037354618199
"412","South Sudan","Central Equatoria","Kk Ajio Primary Hospital","Primary Health Care Unit","MoH",3.8387,31.1951,"GPS",NA,NA,12.7180122029493
"413","South Sudan","Central Equatoria","Kk Gurujo Primary Hospital","Primary Health Care Unit","MoH",3.7262,31.5826,"GPS",NA,NA,12.8238613241274
"414","South Sudan","Central Equatoria","Kk Jalimo Primary Hospital","Primary Health Care Centre","MoH",3.7594,31.5988,"GPS",NA,NA,12.9723719259236
"415","South Sudan","Central Equatoria","Kk Jondale Primary Hospital","Primary Health Care Unit","MoH",3.929,31.5351,"GPS",NA,NA,14.010771253158
"416","South Sudan","Central Equatoria","Kk Kala Primary Hospital","Primary Health Care Unit","MoH",3.9824,31.2589,"GPS",NA,NA,13.2375952103524
"417","South Sudan","Central Equatoria","Kk Lipe Primary Hospital","Primary Health Care Centre","MoH",3.8967,31.6202,"Geonames",NA,NA,13.6250736090129
"418","South Sudan","Central Equatoria","Kk Longira Primary Hospital","Primary Health Care Unit","MoH",3.8779,31.6011,"GPS",NA,NA,13.5945095354584
"419","South Sudan","Central Equatoria","Kk Mere Primary Hospital","Primary Health Care Unit","MoH",3.8895,31.6725,"GPS",NA,NA,13.4342381605698
"420","South Sudan","Central Equatoria","Kk Mogiri Primary Hospital","Primary Health Care Unit","MoH",3.9506,31.5953,"GPS",NA,NA,13.6985734219072
"421","South Sudan","Central Equatoria","Kk Romogi Primary Hospital","Primary Health Care Unit","MoH",3.9084,31.6499,"GPS",NA,NA,13.5373027985578
"422","South Sudan","Central Equatoria","Kkkangai Primary Hospital","Primary Health Care Centre","MoH",3.769,31.6568,"GPS",NA,NA,13.0861792154011
"423","South Sudan","Central Equatoria","Komoi Primary Hospital","Primary Health Care Unit","MoH",4.1447,30.6898,"GPS",NA,NA,11.469783056477
"424","South Sudan","Central Equatoria","Korobe Primary Hospital","Primary Health Care Unit","MoH",4.0367,30.945,"GPS",NA,NA,12.4770707413107
"425","South Sudan","Central Equatoria","Korosomba Primary Hospital","Primary Health Care Unit","MoH",5.5419,31.8287,"Geonames",NA,NA,16.1887250957042
"426","South Sudan","Central Equatoria","Koyoki Primary Hospital","Primary Health Care Unit","MoH",3.8403,31.0767,"GPS",NA,NA,12.7575621181456
"427","South Sudan","Central Equatoria","Krot Nyumbo Primary Hospital","Primary Health Care Unit","MoH",5.6094,31.033,"GPS",NA,NA,17.7110084889653
"428","South Sudan","Central Equatoria","Kubi Primary Hospital","Primary Health Care Unit","MoH",4.3902,31.9227,"GPS",NA,NA,14.3238236602106
"429","South Sudan","Central Equatoria","Kuda Primary Hospital","Primary Health Care Centre","MoH",4.9574,31.2253,"GPS",NA,NA,14.8526018464541
"430","South Sudan","Central Equatoria","Kudaji Primary Hospital","Primary Health Care Unit","MoH",3.8842,31.6704,"GPS",NA,NA,13.4342381605698
"431","South Sudan","Central Equatoria","Kuli Papa Primary Hospital","Primary Health Care Unit","MoH",4.3749,31.1166,"GPS",NA,NA,12.4818465471201
"432","South Sudan","Central Equatoria","Kundru Primary Hospital","Primary Health Care Unit","MoH",4.3981,30.2159,"GPS",NA,NA,12.5493797685969
"433","South Sudan","Central Equatoria","Kupera Primary Hospital","Primary Health Care Unit","MoH",4.1332,30.9538,"GPS",NA,NA,12.0148776280655
"434","South Sudan","Central Equatoria","Kura Angereb Primary Hospital","Primary Health Care Unit","MoH",4.6965,31.7238,"GPS",NA,NA,14.3955067869719
"435","South Sudan","Central Equatoria","Kuse Primary Hospital","Primary Health Care Unit","MoH",5.1334,31.3756,"GPS",NA,NA,16.5433296307442
"436","South Sudan","Central Equatoria","Kutali Primary Hospital","Primary Health Care Unit","MoH",4.1092,30.9067,"Geonames",NA,NA,12.6085148979299
"437","South Sudan","Central Equatoria","Kutuk Nawoko Primary Hospital","Primary Health Care Unit","MoH",5.5123,31.5803,"Geonames",NA,NA,16.9917462625713
"438","South Sudan","Central Equatoria","Kwerejik Bungu Primary Hospital","Primary Health Care Unit","MoH",4.6544,31.3877,"GPS",NA,NA,13.4592846540406
"439","South Sudan","Central Equatoria","Kwerejik Luri Primary Hospital","Primary Health Care Unit","MoH",4.9343,31.5874,"GPS",NA,NA,14.2676836659218
"440","South Sudan","Central Equatoria","Kwerejik Lurit Primary Hospital","Primary Health Care Unit","MoH",4.991,31.5584,"GPS",NA,NA,14.4903491863105
"441","South Sudan","Central Equatoria","Kwori Primary Hospital","Primary Health Care Unit","MoH",5.3438,31.1137,"Geonames",NA,NA,16.8536684644133
"442","South Sudan","Central Equatoria","Kwornyang Primary Hospital","Primary Health Care Unit","MoH",5.5432,31.543,"GPS",NA,NA,16.9582124006004
"443","South Sudan","Central Equatoria","Kworojik Bungu Primary Hospital","Primary Health Care Unit","MoH",4.6498,31.3881,"GPS",NA,NA,13.4408543909094
"444","South Sudan","Central Equatoria","Lainya 1 Primary Hospital","Primary Health Care Centre","MoH",4.3405,31.0752,"Geonames",NA,NA,12.4745035544796
"445","South Sudan","Central Equatoria","Langabu Primary Hospital","Primary Health Care Unit","MoH",4.5638,32.0538,"GPS",NA,NA,15.6413670782448
"446","South Sudan","Central Equatoria","Langi Primary Hospital","Primary Health Care Unit","MoH",4.3634,31.3272,"GPS",NA,NA,15.917038651935
"447","South Sudan","Central Equatoria","Lasu Primary Hospital","Primary Health Care Centre","MoH",3.9498,30.4671,"GPS",NA,NA,10.631881334715
"448","South Sudan","Central Equatoria","Latta Primary Hospital","Primary Health Care Unit","MoH",3.879,30.5586,"GPS",NA,NA,12.4736105533733
"449","South Sudan","Central Equatoria","Leikor Primary Hospital","Primary Health Care Unit","MoH",3.8078,31.6659,"GPS",NA,NA,13.1773235398724
"450","South Sudan","Central Equatoria","Libogo Primary Hospital","Primary Health Care Unit","MoH",3.8222,30.5952,"GPS",NA,NA,12.092932424786
"451","South Sudan","Central Equatoria","Liggi Primary Hospital","Primary Health Care Unit","MoH",3.8365,30.7707,"Geonames",NA,NA,11.7743837798722
"452","South Sudan","Central Equatoria","Ligi Primary Hospital","Primary Health Care Unit","MoH",5.0922,31.3016,"GPS",NA,NA,15.6362028770483
"453","South Sudan","Central Equatoria","Limbe Primary Hospital","Primary Health Care Centre","MoH",4.1611,30.8609,"GPS",NA,NA,11.7256386638135
"454","South Sudan","Central Equatoria","Limi Primary Hospital","Primary Health Care Unit","MoH",3.8028,31.7152,"GPS",NA,NA,13.4488365071892
"455","South Sudan","Central Equatoria","Limi Two Primary Hospital","Primary Health Care Unit","MoH",3.8038,31.6985,"GPS",NA,NA,13.3562741872876
"456","South Sudan","Central Equatoria","Limuro Primary Hospital","Primary Health Care Unit","MoH",4.0583,31.058,"GPS",NA,NA,12.5090657969891
"457","South Sudan","Central Equatoria","Lirya Primary Hospital","Primary Health Care Centre","MoH",4.3856,32.0464,"Geonames",NA,NA,14.7633727965093
"458","South Sudan","Central Equatoria","Liteba Primary Hospital","Primary Health Care Unit","MoH",3.7268,31.6831,"GPS",NA,NA,12.814434734712
"459","South Sudan","Central Equatoria","Liwolo Missionaries County Hospital","County Hospital","MoH",3.7951,31.4299,"GPS",NA,NA,12.5878332311745
"460","South Sudan","Central Equatoria","Lobonok Primary Hospital","Primary Health Care Unit","MoH",4.2951,31.6208,"Geonames",NA,NA,15.4082077143825
"461","South Sudan","Central Equatoria","Logili Primary Hospital","Primary Health Care Unit","MoH",3.8436,31.6375,"GPS",NA,NA,13.3820367506087
"462","South Sudan","Central Equatoria","Logo (Tibari) Primary Hospital","Primary Health Care Unit","MoH",5.0177,31.7235,"GPS",NA,NA,15.4854209019063
"463","South Sudan","Central Equatoria","Logobero Primary Hospital","Primary Health Care Unit","MoH",4.1245,30.6696,"GPS",NA,NA,11.3067683974958
"464","South Sudan","Central Equatoria","Logobero Primary Hospital","Primary Health Care Unit","MoH",4.2022,30.693,"GPS",NA,NA,11.8021325495522
"465","South Sudan","Central Equatoria","Logu Primary Hospital","Primary Health Care Unit","MoH",3.8356,31.6189,"GPS",NA,NA,13.3256786170653
"466","South Sudan","Central Equatoria","Logwerle Primary Hospital","Primary Health Care Unit","MoH",4.2364,30.973,"Geonames",NA,NA,12.0346972262628
"467","South Sudan","Central Equatoria","Logwili Primary Hospital","Primary Health Care Unit","MoH",4.3701,31.1212,"GPS",NA,NA,12.5003461972854
"468","South Sudan","Central Equatoria","Lojora Primary Hospital","Primary Health Care Unit","MoH",5.2782,31.7263,"GPS",NA,NA,15.5337853292053
"469","South Sudan","Central Equatoria","Lojora Primary Hospital","Primary Health Care Unit","MoH",5.3822,31.6801,"GPS",NA,NA,15.6932120929874
"470","South Sudan","Central Equatoria","Loka Round Primary Hospital","Primary Health Care Unit","MoH",4.2732,31.0196,"GPS",NA,NA,12.1761631610712
"471","South Sudan","Central Equatoria","Loka West Primary Hospital","Primary Health Care Unit","MoH",4.2546,31.0001,"GPS",NA,NA,12.1239332404729
"472","South Sudan","Central Equatoria","Loki Primary Hospital","Primary Health Care Unit","MoH",5.609,31.7177,"Geonames",NA,NA,16.7813934421134
"473","South Sudan","Central Equatoria","Lokweni Primary Hospital","Primary Health Care Unit","MoH",5.5554,31.7104,"GPS",NA,NA,16.6815311508499
"474","South Sudan","Central Equatoria","Lologo Primary Hospital","Primary Health Care Centre","MoH",4.8128,31.5953,"GPS",NA,NA,14.1981417077866
"475","South Sudan","Central Equatoria","Lomega Primary Hospital","Primary Health Care Unit","MoH",4.7267,31.6554,"GPS",NA,NA,14.2924410981201
"476","South Sudan","Central Equatoria","Lomilikin Primary Hospital","Primary Health Care Unit","MoH",4.2641,30.9422,"GPS",NA,NA,12.3579470153309
"477","South Sudan","Central Equatoria","Lomin Primary Hospital","Primary Health Care Unit","MoH",3.8249,31.6595,"GPS",NA,NA,13.2349168669938
"478","South Sudan","Central Equatoria","Lonai Primary Hospital","Primary Health Care Unit","MoH",5.4785,31.4342,"GPS",NA,NA,17.1361479642219
"479","South Sudan","Central Equatoria","Longira Primary Hospital","Primary Health Care Unit","MoH",3.858,31.5925,"Geonames",NA,NA,13.6357482454216
"480","South Sudan","Central Equatoria","Lopepe Primary Hospital","Primary Health Care Unit","MoH",4.9433,31.5709,"GPS",NA,NA,14.3348527903444
"481","South Sudan","Central Equatoria","Lora Kala Primary Hospital","Primary Health Care Unit","MoH",3.9377,31.5055,"GPS",NA,NA,13.7839396192675
"482","South Sudan","Central Equatoria","Lora Primary Hospital","Primary Health Care Centre","MoH",4.2064,30.913,"GPS",NA,NA,11.8747242389228
"483","South Sudan","Central Equatoria","Lora Primary Hospital","Primary Health Care Unit","MoH",3.8812,31.3316,"GPS",NA,NA,12.65985650147
"484","South Sudan","Central Equatoria","Lori Primary Hospital","Primary Health Care Unit","MoH",4.0061,31.5067,"GPS",NA,NA,14.2067304570744
"485","South Sudan","Central Equatoria","Loro Primary Hospital","Primary Health Care Unit","MoH",3.8699,31.1667,"GPS",NA,NA,13.0424906907157
"486","South Sudan","Central Equatoria","Lorumba Primary Hospital","Primary Health Care Unit","MoH",4.3422,30.2463,"Geonames",NA,NA,12.4168342251815
"487","South Sudan","Central Equatoria","Lotemba Primary Hospital","Primary Health Care Unit","MoH",4.7388,30.9354,"GPS",NA,NA,13.6488306340767
"488","South Sudan","Central Equatoria","Lowirja Primary Hospital","Primary Health Care Unit","MoH",5.5515,31.5278,"GPS",NA,NA,17.144609158282
"489","South Sudan","Central Equatoria","Luala Primary Hospital","Primary Health Care Unit","MoH",5.026,31.651,"Geonames",NA,NA,14.5905884540288
"490","South Sudan","Central Equatoria","Lujulo Primary Hospital","Primary Health Care Unit","MoH",3.6787,30.6646,"GPS",NA,NA,11.8952619178826
"491","South Sudan","Central Equatoria","Lujulo Primary Hospital","Primary Health Care Unit","MoH",3.8122,30.902,"GPS",NA,NA,12.9996499572475
"492","South Sudan","Central Equatoria","Lumonik Primary Hospital","Primary Health Care Unit","MoH",5.0644,31.5333,"GPS",NA,NA,15.3656790121028
"493","South Sudan","Central Equatoria","Lupayong Primary Hospital","Primary Health Care Centre","MoH",3.9049,31.0609,"GPS",NA,NA,14.2991802054859
"494","South Sudan","Central Equatoria","Luri Jebel Primary Hospital","Primary Health Care Unit","MoH",4.9789,31.5591,"GPS",NA,NA,14.4596317807858
"495","South Sudan","Central Equatoria","Luri Rokwe Primary Hospital","Primary Health Care Unit","MoH",4.8982,31.5956,"GPS",NA,NA,14.1810422800343
"496","South Sudan","Central Equatoria","Luri Somba Primary Hospital","Primary Health Care Unit","MoH",4.8873,31.4032,"GPS",NA,NA,14.3882365364549
"497","South Sudan","Central Equatoria","Luri Somba Primary Hospital","Primary Health Care Unit","MoH",4.8873,31.4032,"GPS",NA,NA,14.3882365364549
"498","South Sudan","Central Equatoria","Madikolok Primary Hospital","Primary Health Care Unit","MoH",4.7795,30.921,"GPS",NA,NA,13.7832100626958
"499","South Sudan","Central Equatoria","Mading Primary Hospital","Primary Health Care Unit","MoH",5.8521,30.7924,"GPS",NA,NA,18.735045042579
"500","South Sudan","Central Equatoria","Magor kole Primary Hospital","Primary Health Care Unit","MoH",4.9185,31.4201,"GPS",NA,NA,14.5970834618202
"501","South Sudan","Central Equatoria","Magor Kolo Primary Hospital","Primary Health Care Unit","MoH",5.0227,31.1001,"GPS",NA,NA,15.204668348704
"502","South Sudan","Central Equatoria","Mahad Primary Sch. Primary Hospital","Primary Health Care Centre","MoH",4.8312,31.611,"Geonames",NA,NA,14.1626699604857
"503","South Sudan","Central Equatoria","Makamagor Primary Hospital","Primary Health Care Unit","MoH",5.492,31.6181,"GPS",NA,NA,17.0376016185924
"504","South Sudan","Central Equatoria","Makaro Primary Hospital","Primary Health Care Unit","MoH",5.0798,31.4499,"GPS",NA,NA,15.3665972110369
"505","South Sudan","Central Equatoria","Makido Primary Hospital","Primary Health Care Unit","MoH",5.9628,30.7412,"GPS",NA,NA,18.3910839569932
"506","South Sudan","Central Equatoria","Malakan Primary Hospital","Primary Health Care Unit","MoH",4.5843,31.0261,"GPS",NA,NA,14.0216488108586
"507","South Sudan","Central Equatoria","Malakia Primary Hospital","Primary Health Care Unit","MoH",4.8346,31.6027,"GPS",NA,NA,14.1496174344391
"508","South Sudan","Central Equatoria","Mandikolok Primary Hospital","Primary Health Care Unit","MoH",4.1699,30.8653,"GPS",NA,NA,11.7332507605936
"509","South Sudan","Central Equatoria","Manga Lotore Primary Hospital","Primary Health Care Centre","MoH",3.8021,31.551,"GPS",NA,NA,13.1209775191424
"510","South Sudan","Central Equatoria","Mankaro Primary Hospital","Primary Health Care Unit","MoH",4.6019,30.9609,"GPS",NA,NA,13.2130439048806
"511","South Sudan","Central Equatoria","Mapako Primary Hospital","Primary Health Care Unit","MoH",4.2254,30.5375,"GPS",NA,NA,11.9950669516563
"512","South Sudan","Central Equatoria","Marakak Primary Hospital","Primary Health Care Unit","MoH",5.6104,31.7283,"GPS",NA,NA,16.6877823054867
"513","South Sudan","Central Equatoria","Maremo Primary Hospital","Primary Health Care Unit","MoH",4.9414,31.4344,"GPS",NA,NA,14.8314481688758
"514","South Sudan","Central Equatoria","Mengele Primary Hospital","Primary Health Care Unit","MoH",4.6367,30.9406,"GPS",NA,NA,13.3339900286761
"515","South Sudan","Central Equatoria","Mere Guga Primary Hospital","Primary Health Care Unit","MoH",3.7694,31.4869,"GPS",NA,NA,12.797691887869
"516","South Sudan","Central Equatoria","Meridi Primary Hospital","Primary Health Care Unit","MoH",5.4901,31.6176,"GPS",NA,NA,16.9878377818318
"517","South Sudan","Central Equatoria","Merkio Primary Hospital","Primary Health Care Unit","MoH",5.0763,30.9983,"Geonames",NA,NA,15.4952157247267
"518","South Sudan","Central Equatoria","Mijiki Primary Hospital","Primary Health Care Unit","MoH",5.724,30.8411,"GPS",NA,NA,18.6048563487906
"519","South Sudan","Central Equatoria","Mina Primary Hospital","Primary Health Care Unit","MoH",5.8033,30.7416,"GPS",NA,NA,17.8624840791859
"520","South Sudan","Central Equatoria","Minyori Primary Hospital","Primary Health Care Unit","MoH",4.1253,30.6201,"GPS",NA,NA,11.3406319743979
"521","South Sudan","Central Equatoria","Mitika Primary Hospital","Primary Health Care Unit","MoH",3.9582,30.5064,"GPS",NA,NA,10.7135294436209
"522","South Sudan","Central Equatoria","Mobil Primary Hospital","Primary Health Care Unit","MoH",4.9592,31.6341,"GPS",NA,NA,14.3871095569811
"523","South Sudan","Central Equatoria","Mogiri _Juba Primary Hospital","Primary Health Care Unit","MoH",4.8871,31.856,"Geonames",NA,NA,14.7713609073233
"524","South Sudan","Central Equatoria","Moijo Primary Hospital","Primary Health Care Unit","MoH",3.8047,31.7935,"GPS",NA,NA,13.5349105834457
"525","South Sudan","Central Equatoria","Moje Primary Hospital","Primary Health Care Unit","MoH",4.4605,31.0268,"GPS",NA,NA,12.7446036812996
"526","South Sudan","Central Equatoria","Mokido Primary Hospital","Primary Health Care Unit","MoH",4.9457,31.5819,"Geonames",NA,NA,14.3111886516931
"527","South Sudan","Central Equatoria","Molusuk Primary Hospital","Primary Health Care Unit","MoH",5.4618,31.7064,"Geonames",NA,NA,16.0022052280412
"528","South Sudan","Central Equatoria","Mondi Primary Hospital","Primary Health Care Unit","MoH",3.8938,31.4844,"GPS",NA,NA,14.482359951938
"529","South Sudan","Central Equatoria","Mondikolok Primary Hospital","Primary Health Care Unit","MoH",3.9082,31.6275,"GPS",NA,NA,13.581934394643
"530","South Sudan","Central Equatoria","Mongo Primary Hospital","Primary Health Care Unit","MoH",3.9044,30.6116,"GPS",NA,NA,11.4791080817314
"531","South Sudan","Central Equatoria","Mongolla Primary Hospital","Primary Health Care Centre","MoH",5.1966,31.7687,"Geonames",NA,NA,15.2996776072636
"532","South Sudan","Central Equatoria","Monoji Primary Hospital","Primary Health Care Unit","MoH",4.8381,31.659,"GPS",NA,NA,14.2790524707259
"533","South Sudan","Central Equatoria","Moridi Primary Hospital","Primary Health Care Unit","MoH",5.338,31.703,"Geonames",NA,NA,15.6202220542791
"534","South Sudan","Central Equatoria","Morobo Clinic () Primary Hospital","Primary Health Care Unit","MoH",4.847,31.5811,"Geonames",NA,NA,14.1180774994634
"535","South Sudan","Central Equatoria","Morobo Primary Hospital","Primary Health Care Centre","MoH",3.6878,30.7752,"GPS",NA,NA,11.3887938910396
"536","South Sudan","Central Equatoria","Morsack Primary Hospital","Primary Health Care Unit","MoH",4.3876,31.5935,"GPS",NA,NA,15.191696144997
"537","South Sudan","Central Equatoria","Morta Primary Hospital","Primary Health Care Unit","MoH",4.3412,31.0753,"GPS",NA,NA,12.4745035544796
"538","South Sudan","Central Equatoria","Mugiri Primary Hospital","Primary Health Care Centre","MoH",4.8884,31.8553,"Geonames",NA,NA,14.7713609073233
"539","South Sudan","Central Equatoria","Mugwo Primary Hospital","Primary Health Care Centre","MoH",3.8898,30.7401,"GPS",NA,NA,11.7725045746708
"540","South Sudan","Central Equatoria","Mundari Bura Primary Hospital","Primary Health Care Centre","MoH",5.6727,30.9746,"GPS",NA,NA,17.7901217613865
"541","South Sudan","Central Equatoria","Mundu Primary Hospital","Primary Health Care Unit","MoH",4.0402,31.0162,"GPS",NA,NA,12.3818289575265
"542","South Sudan","Central Equatoria","Muni Primary Hospital","Primary Health Care Centre","MoH",5.644,31.7202,"GPS",NA,NA,16.8912349422923
"543","South Sudan","Central Equatoria","Munuki Primary Hospital","Primary Health Care Centre","MoH",4.8634,31.5793,"GPS",NA,NA,14.1365078714919
"544","South Sudan","Central Equatoria","Myikabur Primary Hospital","Primary Health Care Unit","MoH",5.5554,31.7104,"GPS",NA,NA,16.6815311508499
"545","South Sudan","Central Equatoria","Nesitu Primary Hospital","Primary Health Care Unit","MoH",4.6921,31.7032,"Geonames",NA,NA,14.3631468592445
"546","South Sudan","Central Equatoria","New Site Clinic Primary Hospital","Primary Health Care Centre","MoH",4.8973,31.5893,"Geonames",NA,NA,14.1772054206783
"547","South Sudan","Central Equatoria","Ngangala Primary Hospital","Primary Health Care Unit","MoH",4.7046,31.9203,"GPS",NA,NA,14.8926112931545
"548","South Sudan","Central Equatoria","Ngerjebi Primary Hospital","Primary Health Care Unit","MoH",4.6573,31.7116,"GPS",NA,NA,14.5050956248999
"549","South Sudan","Central Equatoria","Ngulere Primary Hospital","Primary Health Care Unit","MoH",4.692,31.9619,"GPS",NA,NA,14.9926841485159
"550","South Sudan","Central Equatoria","Nyagando Primary Hospital","Primary Health Care Unit","MoH",4.0773,30.9855,"GPS",NA,NA,12.1915413030533
"551","South Sudan","Central Equatoria","Nyamani Primary Hospital","Primary Health Care Unit","MoH",5.015,31.5574,"GPS",NA,NA,14.5952868553854
"552","South Sudan","Central Equatoria","Nyamin Primary Hospital","Primary Health Care Unit","MoH",4.9313,31.3396,"GPS",NA,NA,14.5742113349266
"553","South Sudan","Central Equatoria","Nyanga Primary Hospital","Primary Health Care Unit","MoH",5.7681,31.0418,"GPS",NA,NA,17.8130488505229
"554","South Sudan","Central Equatoria","Nyangele Primary Hospital","Primary Health Care Unit","MoH",4.3582,30.9359,"GPS",NA,NA,12.7987620129894
"555","South Sudan","Central Equatoria","Nyara Primary Hospital","Primary Health Care Unit","MoH",4.9167,31.25,"Geonames",NA,NA,15.3312427451347
"556","South Sudan","Central Equatoria","Nyarjuw Primary Hospital","Primary Health Care Unit","MoH",4.2668,31.3529,"GPS",NA,NA,16.1600027340315
"557","South Sudan","Central Equatoria","Nyikabur Primary Hospital","Primary Health Care Unit","MoH",5.5814,31.8247,"Geonames",NA,NA,16.3173215180197
"558","South Sudan","Central Equatoria","Nyokuron Primary Hospital","Primary Health Care Centre","MoH",4.846,31.5791,"Geonames",NA,NA,14.1180774994634
"559","South Sudan","Central Equatoria","Nyomori Primary Hospital","Primary Health Care Unit","MoH",4.8156,30.8832,"GPS",NA,NA,14.0099551638516
"560","South Sudan","Central Equatoria","Nyori Lasu Primary Hospital","Primary Health Care Unit","MoH",3.9401,30.4239,"Geonames",NA,NA,10.5132132327104
"561","South Sudan","Central Equatoria","Nyori Primary Hospital","Primary Health Care Unit","MoH",5.3178,31.7068,"GPS",NA,NA,15.5454034905848
"562","South Sudan","Central Equatoria","Nyoro Primary Hospital","Primary Health Care Unit","MoH",4.8403,30.9381,"GPS",NA,NA,14.2731657066638
"563","South Sudan","Central Equatoria","Odemo Primary Hospital","Primary Health Care Unit","MoH",4.7051,31.7585,"GPS",NA,NA,14.5151605051438
"564","South Sudan","Central Equatoria","Ombasi Primary Hospital","Primary Health Care Centre","MoH",3.8888,30.6079,"Geonames",NA,NA,11.5904854572704
"565","South Sudan","Central Equatoria","Orphanage Primary Hospital","Primary Health Care Unit","MoH",3.8782,31.6671,"Geonames",NA,NA,13.4135045283822
"566","South Sudan","Central Equatoria","Pagara Primary Hospital","Primary Health Care Unit","MoH",6.0128,30.6656,"GPS",NA,NA,18.9127574149918
"567","South Sudan","Central Equatoria","Pager Lobonok Primary Hospital","Primary Health Care Unit","MoH",4.3912,31.9211,"GPS",NA,NA,14.3238236602106
"568","South Sudan","Central Equatoria","Pager Rajaf Primary Hospital","Primary Health Care Unit","MoH",4.6973,31.6085,"GPS",NA,NA,14.4919011073933
"569","South Sudan","Central Equatoria","Pager Military Primary Hospital","Primary Health Care Unit","MoH",4.202,31.6344,"Geonames",NA,NA,15.0971556563695
"570","South Sudan","Central Equatoria","Pakula Primary Hospital","Primary Health Care Unit","MoH",4.0406,30.8717,"GPS",NA,NA,12.2099232628498
"571","South Sudan","Central Equatoria","Panyume Primary Hospital","Primary Health Care Unit","MoH",3.781,30.9509,"GPS",NA,NA,12.0114212287314
"572","South Sudan","Central Equatoria","Parasak / Barajak Primary Hospital","Primary Health Care Unit","MoH",4.0723,31.0721,"GPS",NA,NA,12.5627946053068
"573","South Sudan","Central Equatoria","Payawa Primary Hospital","Primary Health Care Unit","MoH",3.9538,30.7392,"GPS",NA,NA,11.6096838921983
"574","South Sudan","Central Equatoria","Perisa Primary Hospital","Primary Health Care Unit","MoH",5.1768,31.0334,"GPS",NA,NA,15.9435654408282
"575","South Sudan","Central Equatoria","Pirisa Primary Hospital","Primary Health Care Unit","MoH",5.1757,31.0336,"Geonames",NA,NA,15.9435654408282
"576","South Sudan","Central Equatoria","Pisak Primary Hospital","Primary Health Care Unit","MoH",4.1509,30.5261,"GPS",NA,NA,11.5822493530487
"577","South Sudan","Central Equatoria","Pojur Primary Hospital","Primary Health Care Unit","MoH",5.6448,31.6938,"GPS",NA,NA,17.0876687165587
"578","South Sudan","Central Equatoria","Rajaf East Primary Hospital","Primary Health Care Unit","MoH",4.7516,31.6095,"GPS",NA,NA,14.3306359658087
"579","South Sudan","Central Equatoria","Rajaf Primary Hospital","Primary Health Care Unit","MoH",4.75,31.579,"GPS",NA,NA,14.3577805685874
"580","South Sudan","Central Equatoria","Rajaf West Primary Hospital","Primary Health Care Unit","MoH",4.7442,31.5922,"GPS",NA,NA,14.3449872752256
"581","South Sudan","Central Equatoria","Rijong Primary Hospital","Primary Health Care Unit","MoH",5.3939,31.1692,"GPS",NA,NA,17.0030856625421
"582","South Sudan","Central Equatoria","Rijongu Primary Hospital","Primary Health Care Centre","MoH",4.3301,30.9658,"GPS",NA,NA,12.6029082722748
"583","South Sudan","Central Equatoria","Robeke Primary Hospital","Primary Health Care Unit","MoH",3.977,30.5386,"Geonames",NA,NA,10.8103983395619
"584","South Sudan","Central Equatoria","Rodo Primary Hospital","Primary Health Care Unit","MoH",4.0431,31.5245,"GPS",NA,NA,14.0477907559296
"585","South Sudan","Central Equatoria","Rodoba Primary Hospital","Primary Health Care Unit","MoH",3.6001,30.8072,"GPS",NA,NA,11.1814115356251
"586","South Sudan","Central Equatoria","Roja Primary Hospital","Primary Health Care Unit","MoH",4.8155,30.8801,"GPS",NA,NA,14.0099551638516
"587","South Sudan","Central Equatoria","Rokon Primary Hospital","Primary Health Care Centre","MoH",5.1304,30.9416,"GPS",NA,NA,15.3942537622777
"588","South Sudan","Central Equatoria","Romogi Primary Hospital","Primary Health Care Unit","MoH",3.7868,31.7039,"Geonames",NA,NA,13.6905980161668
"589","South Sudan","Central Equatoria","Roronyo Primary Hospital","Primary Health Care Unit","MoH",4.2404,30.715,"Geonames",NA,NA,12.1173760155147
"590","South Sudan","Central Equatoria","Rubeke Primary Hospital","Primary Health Care Unit","MoH",3.9791,30.5429,"GPS",NA,NA,10.8289071618239
"591","South Sudan","Central Equatoria","Rungeta Primary Hospital","Primary Health Care Unit","MoH",3.7832,31.3691,"GPS",NA,NA,12.4488722373209
"592","South Sudan","Central Equatoria","Rwonyi Primary Hospital","Primary Health Care Unit","MoH",4.0559,30.715,"GPS",NA,NA,11.350078664591
"593","South Sudan","Central Equatoria","Sacret Hospital","Primary Health Care Centre","MoH",4.8286,31.6009,"GPS",NA,NA,14.1534261602346
"594","South Sudan","Central Equatoria","Sare Jale Primary Hospital","Primary Health Care Unit","MoH",3.7053,31.6762,"GPS",NA,NA,11.7796592514329
"595","South Sudan","Central Equatoria","Saregoro Primary Hospital","Primary Health Care Unit","MoH",3.8442,31.6788,"GPS",NA,NA,13.3117406762747
"596","South Sudan","Central Equatoria","Senema Primary Hospital","Primary Health Care Unit","MoH",3.8151,30.5728,"GPS",NA,NA,12.0820773262306
"597","South Sudan","Central Equatoria","Seremon Primary Hospital","Primary Health Care Unit","MoH",4.1548,30.8385,"GPS",NA,NA,11.6625127186556
"598","South Sudan","Central Equatoria","Sereng Primary Hospital","Primary Health Care Unit","MoH",5.0796,30.951,"GPS",NA,NA,15.6588431294803
"599","South Sudan","Central Equatoria","Sermon Primary Hospital","Primary Health Care Unit","MoH",5.0159,31.1132,"GPS",NA,NA,15.1647051457561
"600","South Sudan","Central Equatoria","Seven Days Adventist Primary Hospital","Primary Health Care Unit","FBO/NGO",4.8565,31.5777,"GPS",NA,NA,14.1272926843428
"601","South Sudan","Central Equatoria","Sindiru Primary Hospital","Primary Health Care Unit","MoH",4.4441,31.6083,"GPS",NA,NA,15.1962997568258
"602","South Sudan","Central Equatoria","Soka Primary Hospital","Primary Health Care Unit","MoH",4.3495,30.7499,"GPS",NA,NA,14.8043949490652
"603","South Sudan","Central Equatoria","Sokare Primary Hospital","Primary Health Care Unit","MoH",3.7958,31.4304,"GPS",NA,NA,12.5878332311745
"604","South Sudan","Central Equatoria","St Luke Primary Hospital","Primary Health Care Unit","MoH",4.4385,31.0347,"Geonames",NA,NA,12.6658881229252
"605","South Sudan","Central Equatoria","St Martha Primary Hospital","Primary Health Care Unit","MoH",4.0923,30.6765,"Geonames",NA,NA,11.2423990841724
"606","South Sudan","Central Equatoria","St. Bakhita Primary Hospital","Primary Health Care Centre","MoH",4.1032,30.6324,"GPS",NA,NA,11.3102266296913
"607","South Sudan","Central Equatoria","St.Kizito Primary Hospital","Primary Health Care Centre","MoH",4.86,31.5704,"GPS",NA,NA,14.1383685717147
"608","South Sudan","Central Equatoria","Sure Primary Hospital","Primary Health Care Unit","MoH",4.8822,31.1771,"GPS",NA,NA,15.3621069460341
"609","South Sudan","Central Equatoria","Tali Primary Hospital","Primary Health Care Centre","MoH",5.8975,30.7717,"GPS",NA,NA,18.1196169273632
"610","South Sudan","Central Equatoria","Tendere Primary Hospital","Primary Health Care Unit","MoH",5.1078,31.6158,"GPS",NA,NA,16.1463859937496
"611","South Sudan","Central Equatoria","Terkeka . Primary Hospital","Primary Health Care Centre","MoH",5.4384,31.7458,"GPS",NA,NA,15.8956430310351
"612","South Sudan","Central Equatoria","Tijor Primary Hospital","Primary Health Care Unit","MoH",5.2593,31.2376,"GPS",NA,NA,16.8244189734821
"613","South Sudan","Central Equatoria","Tindilo Primary Hospital","Primary Health Care Unit","MoH",5.6547,31.0578,"GPS",NA,NA,17.268604557005
"614","South Sudan","Central Equatoria","Tirye Primary Hospital","Primary Health Care Unit","MoH",3.8335,31.6407,"Geonames",NA,NA,13.3359620584363
"615","South Sudan","Central Equatoria","Toko-Kotulu Primary Hospital","Primary Health Care Unit","MoH",4.9485,30.914,"Geonames",NA,NA,16.3180972980667
"616","South Sudan","Central Equatoria","Tombek Primary Hospital","Primary Health Care Centre","MoH",5.8113,31.685,"Geonames",NA,NA,17.5375543523913
"617","South Sudan","Central Equatoria","Tombur Primary Hospital","Primary Health Care Unit","MoH",4.9031,31.5462,"Google Earth",NA,NA,14.296761206855
"618","South Sudan","Central Equatoria","Tore Primary Hospital","Primary Health Care Centre","MoH",4.4913,30.1628,"Geonames",NA,NA,12.7982012076741
"619","South Sudan","Central Equatoria","Tukoro Primary Hospital","Primary Health Care Unit","MoH",5.5841,31.7158,"GPS",NA,NA,16.8542512880433
"620","South Sudan","Central Equatoria","Tulyang Primary Hospital","Primary Health Care Unit","MoH",4.7795,30.9211,"GPS",NA,NA,13.7832100626958
"621","South Sudan","Central Equatoria","Undukori Primary Hospital","Primary Health Care Unit","MoH",3.9401,30.6901,"GPS",NA,NA,12.8139640845557
"622","South Sudan","Central Equatoria","Ustratuna Primary Hospital","Primary Health Care Centre","MoH",4.8477,31.6046,"GPS",NA,NA,14.1599519958075
"623","South Sudan","Central Equatoria","Wadupe Primary Hospital","Primary Health Care Unit","MoH",3.8867,30.7075,"GPS",NA,NA,12.5408392880603
"624","South Sudan","Central Equatoria","Walang Walang Primary Hospital","Primary Health Care Unit","MoH",4.8834,31.6257,"GPS",NA,NA,14.3231031760494
"625","South Sudan","Central Equatoria","Walawalang Primary Hospital","Primary Health Care Unit","MoH",5.0625,31.315,"GPS",NA,NA,15.4972170390281
"626","South Sudan","Central Equatoria","Wanyang Primary Hospital","Primary Health Care Unit","MoH",5.3825,31.6803,"GPS",NA,NA,15.6932120929874
"627","South Sudan","Central Equatoria","Wonduruba Primary Hospital","Primary Health Care Centre","MoH",4.5183,31.0328,"GPS",NA,NA,13.0010383655951
"628","South Sudan","Central Equatoria","Wudabi Primary Hospital","Primary Health Care Unit","MoH",3.773,30.619,"GPS",NA,NA,12.2739925010787
"629","South Sudan","Central Equatoria","Wudu Bori Primary Hospital","Primary Health Care Unit","MoH",5.7422,31.7006,"GPS",NA,NA,17.2299616818934
"630","South Sudan","Central Equatoria","Wuji Primary Hospital","Primary Health Care Unit","MoH",3.8405,31.0768,"GPS",NA,NA,12.7575621181456
"631","South Sudan","Central Equatoria","Wujugani Primary Hospital","Primary Health Care Unit","MoH",5.5093,31.7111,"GPS",NA,NA,16.2408706081014
"632","South Sudan","Central Equatoria","Wuna Torok Primary Hospital","Primary Health Care Unit","MoH",5.0809,31.5744,"GPS",NA,NA,14.9438364000841
"633","South Sudan","Central Equatoria","Wurta Primary Hospital","Primary Health Care Unit","MoH",3.6951,31.5522,"GPS",NA,NA,12.5927436486541
"634","South Sudan","Central Equatoria","Yabisak Primary Hospital","Primary Health Care Unit","MoH",5.8216,31.7714,"GPS",NA,NA,16.8658541043401
"635","South Sudan","Central Equatoria","Yapa Primary Hospital","Primary Health Care Unit","MoH",4.9886,31.6082,"GPS",NA,NA,14.5195036135153
"636","South Sudan","Central Equatoria","Yaya Primary Hospital","Primary Health Care Centre","MoH",3.5499,30.8787,"Geonames",NA,NA,10.8346344661874
"637","South Sudan","Central Equatoria","Yebisak Primary Hospital","Primary Health Care Unit","MoH",5.5781,31.7309,"GPS",NA,NA,16.5034742469899
"638","South Sudan","Central Equatoria","Yei County Hospital","County Hospital","MoH",4.0892,30.6735,"Geonames",NA,NA,11.2162813364999
"639","South Sudan","Central Equatoria","Yei River Primary Hospital","Primary Health Care Centre","MoH",4.0881,30.6752,"GPS",NA,NA,11.2347877077433
"640","South Sudan","Central Equatoria","Yeribe Primary Hospital","Primary Health Care Unit","MoH",3.9241,30.9581,"Geonames",NA,NA,13.0944162166153
"641","South Sudan","Central Equatoria","Yondoru Primary Hospital","Primary Health Care Unit","MoH",4.2202,30.7661,"GPS",NA,NA,12.2328995485432
"642","South Sudan","Central Equatoria","Yondu Primary Hospital","Primary Health Care Unit","MoH",3.6628,30.8983,"GPS",NA,NA,11.1339949514013
"643","South Sudan","Central Equatoria","Yr Logo 1 Primary Hospital","Primary Health Care Unit","MoH",4.1417,30.564,"GPS",NA,NA,11.4853930518485
"644","South Sudan","Central Equatoria","Yr Morsak Primary Hospital","Primary Health Care Unit","MoH",3.9413,30.611,"GPS",NA,NA,11.2948089676054
"645","South Sudan","Central Equatoria","Yugufe Primary Hospital","Primary Health Care Unit","MoH",3.7158,30.6933,"GPS",NA,NA,11.9887782841267
"646","South Sudan","Eastern Equatoria","Abara Primary Hospital","Primary Health Care Unit","MoH",4.0828,32.1803,"Geonames",NA,NA,14.6665962575101
"647","South Sudan","Eastern Equatoria","Adeba Primary Hospital","Primary Health Care Unit","MoH",5.0096,32.3955,"GPS",NA,NA,19.4918704243949
"648","South Sudan","Eastern Equatoria","Afoyi (Kit 4) Primary Hospital","Primary Health Care Unit","MoH",4.0762,31.9587,"GPS",NA,NA,13.8882300603616
"649","South Sudan","Eastern Equatoria","Agoro Primary Hospital","Primary Health Care Unit","MoH",4.2699,32.172,"GPS",NA,NA,15.0630552625592
"650","South Sudan","Eastern Equatoria","AIC Lohutok Primary Hospital","Primary Health Care Unit","MoH",4.64,32.854,"GPS",NA,NA,18.1501274505264
"651","South Sudan","Eastern Equatoria","Amee Primary Hospital","Primary Health Care Unit","MoH",4.0604,32.069,"Geonames",NA,NA,14.3110445687313
"652","South Sudan","Eastern Equatoria","Amiru Primary Hospital","Primary Health Care Unit","MoH",4.954,32.4297,"GPS",NA,NA,19.891121427354
"653","South Sudan","Eastern Equatoria","Anzara Primary Hospital","Primary Health Care Unit","MoH",3.5842,32.0922,"Geonames",NA,NA,13.1906137331296
"654","South Sudan","Eastern Equatoria","Arapi Primary Hospital","Primary Health Care Unit","MoH",3.8474,31.9682,"Geonames",NA,NA,13.5648438597876
"655","South Sudan","Eastern Equatoria","Aromo Primary Hospital","Primary Health Care Unit","MoH",5.1012,32.4808,"GPS",NA,NA,19.8266736162726
"656","South Sudan","Eastern Equatoria","Aromu Primary Hospital","Primary Health Care Unit","MoH",5.1012,32.4808,"GPS",NA,NA,19.8266736162726
"657","South Sudan","Eastern Equatoria","Ateda Primary Hospital","Primary Health Care Unit","MoH",3.833,33.4615,"Geonames",NA,NA,16.9146674033598
"658","South Sudan","Eastern Equatoria","Ayii Primary Hospital","Primary Health Care Unit","MoH",3.8168,32.7621,"Geonames",NA,NA,15.9734427836278
"659","South Sudan","Eastern Equatoria","Bilinyang Primary Hospital","Primary Health Care Unit","MoH",3.625,32.1539,"GPS",NA,NA,13.7682057769805
"660","South Sudan","Eastern Equatoria","Bira Primary Hospital","Primary Health Care Centre","MoH",3.8331,33.5821,"GPS",NA,NA,16.9734914009869
"661","South Sudan","Eastern Equatoria","Borongole Beth Israel Primary Hospital","Primary Health Care Unit","MoH",3.9064,31.9368,"GPS",NA,NA,13.6763427240685
"662","South Sudan","Eastern Equatoria","Bule Primary Hospital","Primary Health Care Unit","MoH",5.003,32.45,"Geonames",NA,NA,19.3886073779634
"663","South Sudan","Eastern Equatoria","Bur Muttaram Primary Hospital","Primary Health Care Unit","MoH",4.5259,32.4941,"GPS",NA,NA,16.6874154403967
"664","South Sudan","Eastern Equatoria","Bur Primary Hospital","Primary Health Care Unit","MoH",4.5259,32.4941,"GPS",NA,NA,16.6874154403967
"665","South Sudan","Eastern Equatoria","Bura Primary Hospital","Primary Health Care Unit","MoH",5.0946,32.4808,"GPS",NA,NA,19.780538715576
"666","South Sudan","Eastern Equatoria","Caigon Primary Hospital","Primary Health Care Unit","MoH",3.87,32.48,"Geonames",NA,NA,15.2987778226224
"667","South Sudan","Eastern Equatoria","Calamini Primary Hospital","Primary Health Care Unit","MoH",4.4993,32.9096,"GPS",NA,NA,17.4754484249631
