Country,Admin1,Facility name,Facility type,Ownership,Latitude,Longitude,LL source
South Sudan,Central Equatoria,Abegi Primary Health Care Unit,Primary Health Care Unit,MoH,4.0131,30.5646,GPS
South Sudan,Central Equatoria,Aboroto Primary Health Care Unit,Primary Health Care Unit,MoH,3.6604,30.7097,Geonames
South Sudan,Central Equatoria,Adra Primary Health Care Unit,Primary Health Care Unit,MoH,5.434,31.7504,GPS
South Sudan,Central Equatoria,Agonyakiri Primary Health Care Unit,Primary Health Care Unit,MoH,3.9285,30.5144,GPS
South Sudan,Central Equatoria,Aic Buluk Primary Health Care Unit,Primary Health Care Unit,MoH,4.848,31.5931,GPS
South Sudan,Central Equatoria,Ajio Primary Health Care Unit,Primary Health Care Unit,MoH,3.8422,31.1954,Geonames
South Sudan,Central Equatoria,Ajira Primary Health Care Unit,Primary Health Care Unit,MoH,3.8521,31.6561,GPS
South Sudan,Central Equatoria,Aken Well Primary Health Care Unit,Primary Health Care Unit,MoH,5.9072,30.8206,GPS
South Sudan,Central Equatoria,Aloto Primary Health Care Centre,Primary Health Care Centre,MoH,3.7495,30.625,GPS
South Sudan,Central Equatoria,Angebi Primary Health Care Unit,Primary Health Care Unit,MoH,4.6088,29.9776,GPS
South Sudan,Central Equatoria,Aru Primary Health Care Unit,Primary Health Care Unit,MoH,4.3635,31.9846,GPS
South Sudan,Central Equatoria,Atiit Primary Health Care Unit,Primary Health Care Unit,MoH,5.8957,30.7717,GPS
South Sudan,Central Equatoria,Bamurey Primary Health Care Centre,Primary Health Care Centre,MoH,3.6683,31.5482,Geonames
South Sudan,Central Equatoria,Bandame Primary Health Care Unit,Primary Health Care Unit,MoH,4.323,30.2864,GPS
South Sudan,Central Equatoria,Bekat Primary Health Care Unit,Primary Health Care Unit,MoH,5.6405,31.6871,GPS
South Sudan,Central Equatoria,Belpham Medical Hq Primary Health Care Centre,Primary Health Care Centre,MoH,4.9119,31.5988,Geonames
South Sudan,Central Equatoria,Bereka Primary Health Care Unit,Primary Health Care Unit,MoH,4.3985,31.0418,GPS
South Sudan,Central Equatoria,Bilinang Primary Health Care Unit,Primary Health Care Unit,MoH,4.8543,31.791,GPS
South Sudan,Central Equatoria,Bilingi Primary Health Care Unit,Primary Health Care Unit,MoH,4.9033,31.3799,GPS
South Sudan,Central Equatoria,Bori Aringa Primary Health Care Unit,Primary Health Care Unit,MoH,5.661,31.6827,GPS
South Sudan,Central Equatoria,Bori Primary Health Care Centre,Primary Health Care Centre,MoH,3.7738,31.5102,GPS
South Sudan,Central Equatoria,Boroboro Primary Health Care Unit,Primary Health Care Unit,MoH,3.8554,31.3823,Geonames
South Sudan,Central Equatoria,Buko Primary Health Care Unit,Primary Health Care Unit,MoH,5.1807,31.2734,Geonames
South Sudan,Central Equatoria,Bungu Primary Health Care Unit,Primary Health Care Unit,MoH,4.6644,31.3961,Geonames
South Sudan,Central Equatoria,Bura Primary Health Care Unit,Primary Health Care Unit,MoH,5.4459,31.3774,GPS
South Sudan,Central Equatoria,Dari _Bari Primary Health Care Unit,Primary Health Care Unit,MoH,5.1664,31.5866,GPS
South Sudan,Central Equatoria,Dari Tali Primary Health Care Unit,Primary Health Care Unit,MoH,6.0059,30.7556,GPS
South Sudan,Central Equatoria,Darsuk Primary Health Care Unit,Primary Health Care Unit,MoH,5.0617,31.3133,GPS
South Sudan,Central Equatoria,Digala Primary Health Care Unit,Primary Health Care Unit,MoH,5.4351,31.7494,Geonames
South Sudan,Central Equatoria,Dimo 1 Primary Health Care Unit,Primary Health Care Unit,MoH,4.2339,30.674,GPS
South Sudan,Central Equatoria,Dokuni Primary Health Care Unit,Primary Health Care Unit,MoH,4.1246,30.9578,Geonames
South Sudan,Central Equatoria,Dongoro Primary Health Care Unit,Primary Health Care Unit,MoH,4.0457,31.1784,GPS
South Sudan,Central Equatoria,Dukudu-Olo Primary Health Care Centre,Primary Health Care Centre,MoH,4.5907,29.8636,GPS
South Sudan,Central Equatoria,Espiscapal Church Primary Health Care Unit,Primary Health Care Unit,FBO/NGO,4.0949,30.6654,GPS
South Sudan,Central Equatoria,Fifty Eight Mile Primary Health Care Unit,Primary Health Care Unit,MoH,4.3684,31.1146,GPS
South Sudan,Central Equatoria,Gabat Primary Health Care Unit,Primary Health Care Unit,MoH,4.2544,31.0003,Geonames
South Sudan,Central Equatoria,Ganji Primary Health Care Centre,Primary Health Care Centre,MoH,4.4543,31.2098,Geonames
South Sudan,Central Equatoria,Gbotoro Primary Health Care Unit,Primary Health Care Unit,MoH,4.1077,31.0924,GPS
South Sudan,Central Equatoria,Gemaiza Primary Health Care Unit,Primary Health Care Unit,MoH,5.6794,31.7972,GPS
South Sudan,Central Equatoria,Genesis Medical Care Primary Health Care Centre,Primary Health Care Centre,MoH,3.8489,31.6582,Geonames
South Sudan,Central Equatoria,Geri Primary Health Care Unit,Primary Health Care Unit,MoH,3.8312,30.946,Geonames
South Sudan,Central Equatoria,Ghabat Primary Health Care Unit,Primary Health Care Unit,MoH,4.8663,31.5455,GPS
South Sudan,Central Equatoria,Gimora Primary Health Care Unit,Primary Health Care Unit,MoH,4.8777,31.5679,GPS
South Sudan,Central Equatoria,Gimoro Primary Health Care Unit,Primary Health Care Unit,MoH,5.166,31.1418,GPS
South Sudan,Central Equatoria,Gimunu Primary Health Care Unit,Primary Health Care Unit,MoH,4.1235,30.7682,GPS
South Sudan,Central Equatoria,Ginyabio Primary Health Care Unit,Primary Health Care Unit,MoH,3.9799,30.9695,GPS
South Sudan,Central Equatoria,Godoru Primary Health Care Centre,Primary Health Care Centre,MoH,3.9385,31.5006,Geonames
South Sudan,Central Equatoria,Goja Primary Health Care Unit,Primary Health Care Unit,MoH,4.0064,30.6363,GPS
South Sudan,Central Equatoria,Goli Primary Health Care Unit,Primary Health Care Unit,MoH,4.2016,30.4496,GPS
South Sudan,Central Equatoria,Gondokoro Main Land Primary Health Care Unit,Primary Health Care Unit,MoH,4.908,31.6628,GPS
South Sudan,Central Equatoria,Gondokoro Primary Health Care Unit,Primary Health Care Unit,MoH,4.9128,31.6534,GPS
South Sudan,Central Equatoria,Good Sheperd Clinic Primary Health Care Centre,Primary Health Care Centre,MoH,4.8592,31.6088,GPS
South Sudan,Central Equatoria,Gorom Primary Health Care Unit,Primary Health Care Unit,MoH,4.7271,31.593,GPS
South Sudan,Central Equatoria,Gudele (107) Primary Health Care Unit,Primary Health Care Unit,MoH,4.8662,31.5619,GPS
South Sudan,Central Equatoria,Gudele Bk 4 Primary Health Care Unit,Primary Health Care Unit,MoH,4.8641,31.5541,GPS
South Sudan,Central Equatoria,Gudele Primary Health Care Unit,Primary Health Care Unit,MoH,4.8742,31.5505,GPS
South Sudan,Central Equatoria,Gugudu Primary Health Care Unit,Primary Health Care Unit,MoH,5.1114,31.375,Geonames
South Sudan,Central Equatoria,Gulukuk Primary Health Care Unit,Primary Health Care Unit,MoH,5.4351,31.537,Geonames
South Sudan,Central Equatoria,Gumbiri Primary Health Care Unit,Primary Health Care Unit,MoH,4.159,30.8615,Geonames
South Sudan,Central Equatoria,Gumbo Primary Health Care Unit,Primary Health Care Unit,MoH,4.8149,31.6227,GPS
South Sudan,Central Equatoria,Gurei Primary Health Care Unit,Primary Health Care Unit,MoH,4.8729,31.5121,Google Earth
South Sudan,Central Equatoria,Gurujo Primary Health Care Unit,Primary Health Care Unit,MoH,4.0627,31.1348,GPS
South Sudan,Central Equatoria,Gurulotogu Primary Health Care Unit,Primary Health Care Unit,MoH,5.1984,31.1993,GPS
South Sudan,Central Equatoria,Gwadiang West Primary Health Care Unit,Primary Health Care Unit,MoH,4.8119,31.5668,GPS
South Sudan,Central Equatoria,Hai Jebel Primary Health Care Unit,Primary Health Care Unit,MoH,3.5426,30.8749,Geonames
South Sudan,Central Equatoria,Iliangari Primary Health Care Unit,Primary Health Care Unit,MoH,4.6755,32.0362,Google Earth
South Sudan,Central Equatoria,Ilyangiri Primary Health Care Unit,Primary Health Care Unit,MoH,4.6769,32.0356,GPS
South Sudan,Central Equatoria,Jabor Primary Health Care Unit,Primary Health Care Unit,MoH,5.1522,31.8099,GPS
South Sudan,Central Equatoria,Jai Primary Health Care Unit,Primary Health Care Unit,MoH,5.5382,31.8286,GPS
South Sudan,Central Equatoria,Jalite Gikokue Primary Health Care Unit,Primary Health Care Unit,MoH,4.6894,31.8575,GPS
South Sudan,Central Equatoria,Jamara Primary Health Care Centre,Primary Health Care Centre,MoH,4.0473,30.9824,GPS
South Sudan,Central Equatoria,Jandoru Primary Health Care Unit,Primary Health Care Unit,MoH,4.6862,31.5804,GPS
South Sudan,Central Equatoria,Jebel Lokiyoro Primary Health Care Unit,Primary Health Care Unit,MoH,4.9716,31.5649,GPS
South Sudan,Central Equatoria,Jobem Primary Health Care Unit,Primary Health Care Unit,MoH,5.3835,31.6478,GPS
South Sudan,Central Equatoria,Jokaki Primary Health Care Unit,Primary Health Care Unit,MoH,4.9925,31.8677,GPS
South Sudan,Central Equatoria,Jokari Primary Health Care Unit,Primary Health Care Unit,MoH,5.3176,31.0463,GPS
South Sudan,Central Equatoria,Jombu Primary Health Care Unit,Primary Health Care Unit,MoH,3.8114,30.7805,GPS
South Sudan,Central Equatoria,Jondale Primary Health Care Unit,Primary Health Care Unit,MoH,3.8036,31.4297,GPS
South Sudan,Central Equatoria,Jonkok Payaya Primary Health Care Unit,Primary Health Care Unit,MoH,5.4253,31.1615,GPS
South Sudan,Central Equatoria,Jonkok Primary Health Care Unit,Primary Health Care Unit,MoH,5.2916,31.0249,GPS
South Sudan,Central Equatoria,Juba Gureyi Primary Health Care Unit,Primary Health Care Unit,MoH,4.8667,31.5185,GPS
South Sudan,Central Equatoria,Juba State Hospital,State Hospital,MoH,4.8495,31.5915,Geonames
South Sudan,Central Equatoria,Juba Teaching Hospital,Teaching Hospital,MoH,4.8509,31.6082,GPS
South Sudan,Central Equatoria,Kabo Primary Health Care Unit,Primary Health Care Unit,MoH,4.9827,31.5276,GPS
South Sudan,Central Equatoria,Kagelu Primary Health Care Unit,Primary Health Care Unit,MoH,4.0518,30.6121,GPS
South Sudan,Central Equatoria,Kagwada Primary Health Care Unit,Primary Health Care Unit,MoH,4.4542,31.2098,GPS
South Sudan,Central Equatoria,Kajiko Primary Health Care Unit,Primary Health Care Unit,MoH,3.8512,30.599,GPS
South Sudan,Central Equatoria,Kajokeji County Hospital,County Hospital,MoH,3.8523,31.6568,GPS
South Sudan,Central Equatoria,Kala Primary Health Care Unit,Primary Health Care Unit,MoH,3.9733,31.294,Geonames
South Sudan,Central Equatoria,Kamsuk Primary Health Care Centre,Primary Health Care Centre,MoH,4.0109,31.5351,Geonames
South Sudan,Central Equatoria,Kangai Primary Health Care Unit,Primary Health Care Unit,MoH,3.6874,30.6429,Geonames
South Sudan,Central Equatoria,Karpeto Primary Health Care Unit,Primary Health Care Unit,MoH,4.1229,31.7023,Geonames
South Sudan,Central Equatoria,Kasurak Primary Health Care Unit,Primary Health Care Unit,MoH,3.8627,31.5388,GPS
South Sudan,Central Equatoria,Katigiri Primary Health Care Centre,Primary Health Care Centre,MoH,4.8935,30.8317,GPS
South Sudan,Central Equatoria,Kator Primary Health Care Centre,Primary Health Care Centre,MoH,4.831,31.5965,Geonames
South Sudan,Central Equatoria,Kator Sacret Heart Primary Health Care Unit,Primary Health Care Unit,MoH,4.8251,31.5923,GPS
South Sudan,Central Equatoria,Kawari Primary Health Care Unit,Primary Health Care Unit,MoH,5.3939,31.1092,GPS
South Sudan,Central Equatoria,Kaya Primary Health Care Unit,Primary Health Care Unit,MoH,3.55,30.88,Geonames
South Sudan,Central Equatoria,Kejiko Primary Health Care Unit,Primary Health Care Unit,MoH,3.8414,30.6044,Geonames
South Sudan,Central Equatoria,Kelang Primary Health Care Unit,Primary Health Care Unit,MoH,4.3741,31.9583,GPS
South Sudan,Central Equatoria,Kendila Primary Health Care Unit,Primary Health Care Unit,MoH,3.7564,30.8918,GPS
South Sudan,Central Equatoria,Kenyi Primary Health Care Unit,Primary Health Care Unit,MoH,4.2065,30.913,GPS
South Sudan,Central Equatoria,Kera Primary Health Care Centre,Primary Health Care Centre,MoH,4.893,30.8339,Geonames
South Sudan,Central Equatoria,Kergulu Primary Health Care Unit,Primary Health Care Unit,MoH,4.0519,30.6126,Geonames
South Sudan,Central Equatoria,Kerit- Nyumba Primary Health Care Unit,Primary Health Care Unit,MoH,5.8548,30.8452,Geonames
South Sudan,Central Equatoria,Kerwa _2 Primary Health Care Unit,Primary Health Care Unit,MoH,3.8515,31.6559,GPS
South Sudan,Central Equatoria,Kerwa 1 Primary Health Care Unit,Primary Health Care Unit,MoH,3.7262,31.5823,GPS
South Sudan,Central Equatoria,Kigwo Primary Health Care Unit,Primary Health Care Unit,MoH,3.8698,31.7391,GPS
South Sudan,Central Equatoria,Kiju Primary Health Care Unit,Primary Health Care Unit,MoH,4.0154,31.1982,GPS
South Sudan,Central Equatoria,Kimba Primary Health Care Unit,Primary Health Care Unit,MoH,3.5797,30.8525,GPS
South Sudan,Central Equatoria,Kimu Primary Health Care Unit,Primary Health Care Unit,MoH,4.865,31.5629,GPS
South Sudan,Central Equatoria,Kinyiba Primary Health Care Unit,Primary Health Care Unit,MoH,3.7342,31.6348,GPS
South Sudan,Central Equatoria,Kiri Primary Health Care Unit,Primary Health Care Unit,MoH,3.7703,31.635,GPS
South Sudan,Central Equatoria,Kirikwa Primary Health Care Unit,Primary Health Care Unit,MoH,4.1431,30.425,GPS
South Sudan,Central Equatoria,Kirikwat Primary Health Care Unit,Primary Health Care Unit,MoH,4.1447,30.9092,GPS
South Sudan,Central Equatoria,Kit One Primary Health Care Unit,Primary Health Care Unit,MoH,4.2135,31.9951,Geonames
South Sudan,Central Equatoria,Kiu Primary Health Care Unit,Primary Health Care Unit,MoH,6.2048,30.6006,GPS
South Sudan,Central Equatoria,Kk Ajio Primary Health Care Unit,Primary Health Care Unit,MoH,3.8387,31.1951,GPS
South Sudan,Central Equatoria,Kk Gurujo Primary Health Care Unit,Primary Health Care Unit,MoH,3.7262,31.5826,GPS
South Sudan,Central Equatoria,Kk Jalimo Primary Health Care Centre,Primary Health Care Centre,MoH,3.7594,31.5988,GPS
South Sudan,Central Equatoria,Kk Jondale Primary Health Care Unit,Primary Health Care Unit,MoH,3.929,31.5351,GPS
South Sudan,Central Equatoria,Kk Kala Primary Health Care Unit,Primary Health Care Unit,MoH,3.9824,31.2589,GPS
South Sudan,Central Equatoria,Kk Lipe Primary Health Care Centre,Primary Health Care Centre,MoH,3.8967,31.6202,Geonames
South Sudan,Central Equatoria,Kk Longira Primary Health Care Unit,Primary Health Care Unit,MoH,3.8779,31.6011,GPS
South Sudan,Central Equatoria,Kk Mere Primary Health Care Unit,Primary Health Care Unit,MoH,3.8895,31.6725,GPS
South Sudan,Central Equatoria,Kk Mogiri Primary Health Care Unit,Primary Health Care Unit,MoH,3.9506,31.5953,GPS
South Sudan,Central Equatoria,Kk Romogi Primary Health Care Unit,Primary Health Care Unit,MoH,3.9084,31.6499,GPS
South Sudan,Central Equatoria,Kkkangai Primary Health Care Centre,Primary Health Care Centre,MoH,3.769,31.6568,GPS
South Sudan,Central Equatoria,Komoi Primary Health Care Unit,Primary Health Care Unit,MoH,4.1447,30.6898,GPS
South Sudan,Central Equatoria,Korobe Primary Health Care Unit,Primary Health Care Unit,MoH,4.0367,30.945,GPS
South Sudan,Central Equatoria,Korosomba Primary Health Care Unit,Primary Health Care Unit,MoH,5.5419,31.8287,Geonames
South Sudan,Central Equatoria,Koyoki Primary Health Care Unit,Primary Health Care Unit,MoH,3.8403,31.0767,GPS
South Sudan,Central Equatoria,Krot Nyumbo Primary Health Care Unit,Primary Health Care Unit,MoH,5.6094,31.033,GPS
South Sudan,Central Equatoria,Kubi Primary Health Care Unit,Primary Health Care Unit,MoH,4.3902,31.9227,GPS
South Sudan,Central Equatoria,Kuda Primary Health Care Centre,Primary Health Care Centre,MoH,4.9574,31.2253,GPS
South Sudan,Central Equatoria,Kudaji Primary Health Care Unit,Primary Health Care Unit,MoH,3.8842,31.6704,GPS
South Sudan,Central Equatoria,Kuli Papa Primary Health Care Unit,Primary Health Care Unit,MoH,4.3749,31.1166,GPS
South Sudan,Central Equatoria,Kundru Primary Health Care Unit,Primary Health Care Unit,MoH,4.3981,30.2159,GPS
South Sudan,Central Equatoria,Kupera Primary Health Care Unit,Primary Health Care Unit,MoH,4.1332,30.9538,GPS
South Sudan,Central Equatoria,Kura Angereb Primary Health Care Unit,Primary Health Care Unit,MoH,4.6965,31.7238,GPS
South Sudan,Central Equatoria,Kuse Primary Health Care Unit,Primary Health Care Unit,MoH,5.1334,31.3756,GPS
South Sudan,Central Equatoria,Kutali Primary Health Care Unit,Primary Health Care Unit,MoH,4.1092,30.9067,Geonames
South Sudan,Central Equatoria,Kutuk Nawoko Primary Health Care Unit,Primary Health Care Unit,MoH,5.5123,31.5803,Geonames
South Sudan,Central Equatoria,Kwerejik Bungu Primary Health Care Unit,Primary Health Care Unit,MoH,4.6544,31.3877,GPS
South Sudan,Central Equatoria,Kwerejik Luri Primary Health Care Unit,Primary Health Care Unit,MoH,4.9343,31.5874,GPS
South Sudan,Central Equatoria,Kwerejik Lurit Primary Health Care Unit,Primary Health Care Unit,MoH,4.991,31.5584,GPS
South Sudan,Central Equatoria,Kwori Primary Health Care Unit,Primary Health Care Unit,MoH,5.3438,31.1137,Geonames
South Sudan,Central Equatoria,Kwornyang Primary Health Care Unit,Primary Health Care Unit,MoH,5.5432,31.543,GPS
South Sudan,Central Equatoria,Kworojik Bungu Primary Health Care Unit,Primary Health Care Unit,MoH,4.6498,31.3881,GPS
South Sudan,Central Equatoria,Lainya 1 Primary Health Care Centre,Primary Health Care Centre,MoH,4.3405,31.0752,Geonames
South Sudan,Central Equatoria,Langabu Primary Health Care Unit,Primary Health Care Unit,MoH,4.5638,32.0538,GPS
South Sudan,Central Equatoria,Langi Primary Health Care Unit,Primary Health Care Unit,MoH,4.3634,31.3272,GPS
South Sudan,Central Equatoria,Lasu Primary Health Care Centre,Primary Health Care Centre,MoH,3.9498,30.4671,GPS
South Sudan,Central Equatoria,Latta Primary Health Care Unit,Primary Health Care Unit,MoH,3.879,30.5586,GPS
South Sudan,Central Equatoria,Leikor Primary Health Care Unit,Primary Health Care Unit,MoH,3.8078,31.6659,GPS
South Sudan,Central Equatoria,Libogo Primary Health Care Unit,Primary Health Care Unit,MoH,3.8222,30.5952,GPS
South Sudan,Central Equatoria,Liggi Primary Health Care Unit,Primary Health Care Unit,MoH,3.8365,30.7707,Geonames
South Sudan,Central Equatoria,Ligi Primary Health Care Unit,Primary Health Care Unit,MoH,5.0922,31.3016,GPS
South Sudan,Central Equatoria,Limbe Primary Health Care Centre,Primary Health Care Centre,MoH,4.1611,30.8609,GPS
South Sudan,Central Equatoria,Limi Primary Health Care Unit,Primary Health Care Unit,MoH,3.8028,31.7152,GPS
South Sudan,Central Equatoria,Limi Two Primary Health Care Unit,Primary Health Care Unit,MoH,3.8038,31.6985,GPS
South Sudan,Central Equatoria,Limuro Primary Health Care Unit,Primary Health Care Unit,MoH,4.0583,31.058,GPS
South Sudan,Central Equatoria,Lirya Primary Health Care Centre,Primary Health Care Centre,MoH,4.3856,32.0464,Geonames
South Sudan,Central Equatoria,Liteba Primary Health Care Unit,Primary Health Care Unit,MoH,3.7268,31.6831,GPS
South Sudan,Central Equatoria,Liwolo Missionaries County Hospital,County Hospital,MoH,3.7951,31.4299,GPS
South Sudan,Central Equatoria,Lobonok Primary Health Care Unit,Primary Health Care Unit,MoH,4.2951,31.6208,Geonames
South Sudan,Central Equatoria,Logili Primary Health Care Unit,Primary Health Care Unit,MoH,3.8436,31.6375,GPS
South Sudan,Central Equatoria,Logo (Tibari) Primary Health Care Unit,Primary Health Care Unit,MoH,5.0177,31.7235,GPS
South Sudan,Central Equatoria,Logobero Primary Health Care Unit,Primary Health Care Unit,MoH,4.1245,30.6696,GPS
South Sudan,Central Equatoria,Logobero Primary Health Care Unit,Primary Health Care Unit,MoH,4.2022,30.693,GPS
South Sudan,Central Equatoria,Logu Primary Health Care Unit,Primary Health Care Unit,MoH,3.8356,31.6189,GPS
South Sudan,Central Equatoria,Logwerle Primary Health Care Unit,Primary Health Care Unit,MoH,4.2364,30.973,Geonames
South Sudan,Central Equatoria,Logwili Primary Health Care Unit,Primary Health Care Unit,MoH,4.3701,31.1212,GPS
South Sudan,Central Equatoria,Lojora Primary Health Care Unit,Primary Health Care Unit,MoH,5.2782,31.7263,GPS
South Sudan,Central Equatoria,Lojora Primary Health Care Unit,Primary Health Care Unit,MoH,5.3822,31.6801,GPS
South Sudan,Central Equatoria,Loka Round Primary Health Care Unit,Primary Health Care Unit,MoH,4.2732,31.0196,GPS
South Sudan,Central Equatoria,Loka West Primary Health Care Unit,Primary Health Care Unit,MoH,4.2546,31.0001,GPS
South Sudan,Central Equatoria,Loki Primary Health Care Unit,Primary Health Care Unit,MoH,5.609,31.7177,Geonames
South Sudan,Central Equatoria,Lokweni Primary Health Care Unit,Primary Health Care Unit,MoH,5.5554,31.7104,GPS
South Sudan,Central Equatoria,Lologo Primary Health Care Centre,Primary Health Care Centre,MoH,4.8128,31.5953,GPS
South Sudan,Central Equatoria,Lomega Primary Health Care Unit,Primary Health Care Unit,MoH,4.7267,31.6554,GPS
South Sudan,Central Equatoria,Lomilikin Primary Health Care Unit,Primary Health Care Unit,MoH,4.2641,30.9422,GPS
South Sudan,Central Equatoria,Lomin Primary Health Care Unit,Primary Health Care Unit,MoH,3.8249,31.6595,GPS
South Sudan,Central Equatoria,Lonai Primary Health Care Unit,Primary Health Care Unit,MoH,5.4785,31.4342,GPS
South Sudan,Central Equatoria,Longira Primary Health Care Unit,Primary Health Care Unit,MoH,3.858,31.5925,Geonames
South Sudan,Central Equatoria,Lopepe Primary Health Care Unit,Primary Health Care Unit,MoH,4.9433,31.5709,GPS
South Sudan,Central Equatoria,Lora Kala Primary Health Care Unit,Primary Health Care Unit,MoH,3.9377,31.5055,GPS
South Sudan,Central Equatoria,Lora Primary Health Care Centre,Primary Health Care Centre,MoH,4.2064,30.913,GPS
South Sudan,Central Equatoria,Lora Primary Health Care Unit,Primary Health Care Unit,MoH,3.8812,31.3316,GPS
South Sudan,Central Equatoria,Lori Primary Health Care Unit,Primary Health Care Unit,MoH,4.0061,31.5067,GPS
South Sudan,Central Equatoria,Loro Primary Health Care Unit,Primary Health Care Unit,MoH,3.8699,31.1667,GPS
South Sudan,Central Equatoria,Lorumba Primary Health Care Unit,Primary Health Care Unit,MoH,4.3422,30.2463,Geonames
South Sudan,Central Equatoria,Lotemba Primary Health Care Unit,Primary Health Care Unit,MoH,4.7388,30.9354,GPS
South Sudan,Central Equatoria,Lowirja Primary Health Care Unit,Primary Health Care Unit,MoH,5.5515,31.5278,GPS
South Sudan,Central Equatoria,Luala Primary Health Care Unit,Primary Health Care Unit,MoH,5.026,31.651,Geonames
South Sudan,Central Equatoria,Lujulo Primary Health Care Unit,Primary Health Care Unit,MoH,3.6787,30.6646,GPS
South Sudan,Central Equatoria,Lujulo Primary Health Care Unit,Primary Health Care Unit,MoH,3.8122,30.902,GPS
South Sudan,Central Equatoria,Lumonik Primary Health Care Unit,Primary Health Care Unit,MoH,5.0644,31.5333,GPS
South Sudan,Central Equatoria,Lupayong Primary Health Care Centre,Primary Health Care Centre,MoH,3.9049,31.0609,GPS
South Sudan,Central Equatoria,Luri Jebel Primary Health Care Unit,Primary Health Care Unit,MoH,4.9789,31.5591,GPS
South Sudan,Central Equatoria,Luri Rokwe Primary Health Care Unit,Primary Health Care Unit,MoH,4.8982,31.5956,GPS
South Sudan,Central Equatoria,Luri Somba Primary Health Care Unit,Primary Health Care Unit,MoH,4.8873,31.4032,GPS
South Sudan,Central Equatoria,Luri Somba Primary Health Care Unit,Primary Health Care Unit,MoH,4.8873,31.4032,GPS
South Sudan,Central Equatoria,Madikolok Primary Health Care Unit,Primary Health Care Unit,MoH,4.7795,30.921,GPS
South Sudan,Central Equatoria,Mading Primary Health Care Unit,Primary Health Care Unit,MoH,5.8521,30.7924,GPS
South Sudan,Central Equatoria,Magor kole Primary Health Care Unit,Primary Health Care Unit,MoH,4.9185,31.4201,GPS
South Sudan,Central Equatoria,Magor Kolo Primary Health Care Unit,Primary Health Care Unit,MoH,5.0227,31.1001,GPS
South Sudan,Central Equatoria,Mahad Primary Sch. Primary Health Care Centre,Primary Health Care Centre,MoH,4.8312,31.611,Geonames
South Sudan,Central Equatoria,Makamagor Primary Health Care Unit,Primary Health Care Unit,MoH,5.492,31.6181,GPS
South Sudan,Central Equatoria,Makaro Primary Health Care Unit,Primary Health Care Unit,MoH,5.0798,31.4499,GPS
South Sudan,Central Equatoria,Makido Primary Health Care Unit,Primary Health Care Unit,MoH,5.9628,30.7412,GPS
South Sudan,Central Equatoria,Malakan Primary Health Care Unit,Primary Health Care Unit,MoH,4.5843,31.0261,GPS
South Sudan,Central Equatoria,Malakia Primary Health Care Unit,Primary Health Care Unit,MoH,4.8346,31.6027,GPS
South Sudan,Central Equatoria,Mandikolok Primary Health Care Unit,Primary Health Care Unit,MoH,4.1699,30.8653,GPS
South Sudan,Central Equatoria,Manga Lotore Primary Health Care Centre,Primary Health Care Centre,MoH,3.8021,31.551,GPS
South Sudan,Central Equatoria,Mankaro Primary Health Care Unit,Primary Health Care Unit,MoH,4.6019,30.9609,GPS
South Sudan,Central Equatoria,Mapako Primary Health Care Unit,Primary Health Care Unit,MoH,4.2254,30.5375,GPS
South Sudan,Central Equatoria,Marakak Primary Health Care Unit,Primary Health Care Unit,MoH,5.6104,31.7283,GPS
South Sudan,Central Equatoria,Maremo Primary Health Care Unit,Primary Health Care Unit,MoH,4.9414,31.4344,GPS
South Sudan,Central Equatoria,Mengele Primary Health Care Unit,Primary Health Care Unit,MoH,4.6367,30.9406,GPS
South Sudan,Central Equatoria,Mere Guga Primary Health Care Unit,Primary Health Care Unit,MoH,3.7694,31.4869,GPS
South Sudan,Central Equatoria,Meridi Primary Health Care Unit,Primary Health Care Unit,MoH,5.4901,31.6176,GPS
South Sudan,Central Equatoria,Merkio Primary Health Care Unit,Primary Health Care Unit,MoH,5.0763,30.9983,Geonames
South Sudan,Central Equatoria,Mijiki Primary Health Care Unit,Primary Health Care Unit,MoH,5.724,30.8411,GPS
South Sudan,Central Equatoria,Mina Primary Health Care Unit,Primary Health Care Unit,MoH,5.8033,30.7416,GPS
South Sudan,Central Equatoria,Minyori Primary Health Care Unit,Primary Health Care Unit,MoH,4.1253,30.6201,GPS
South Sudan,Central Equatoria,Mitika Primary Health Care Unit,Primary Health Care Unit,MoH,3.9582,30.5064,GPS
South Sudan,Central Equatoria,Mobil Primary Health Care Unit,Primary Health Care Unit,MoH,4.9592,31.6341,GPS
South Sudan,Central Equatoria,Mogiri _Juba Primary Health Care Unit,Primary Health Care Unit,MoH,4.8871,31.856,Geonames
South Sudan,Central Equatoria,Moijo Primary Health Care Unit,Primary Health Care Unit,MoH,3.8047,31.7935,GPS
South Sudan,Central Equatoria,Moje Primary Health Care Unit,Primary Health Care Unit,MoH,4.4605,31.0268,GPS
South Sudan,Central Equatoria,Mokido Primary Health Care Unit,Primary Health Care Unit,MoH,4.9457,31.5819,Geonames
South Sudan,Central Equatoria,Molusuk Primary Health Care Unit,Primary Health Care Unit,MoH,5.4618,31.7064,Geonames
South Sudan,Central Equatoria,Mondi Primary Health Care Unit,Primary Health Care Unit,MoH,3.8938,31.4844,GPS
South Sudan,Central Equatoria,Mondikolok Primary Health Care Unit,Primary Health Care Unit,MoH,3.9082,31.6275,GPS
South Sudan,Central Equatoria,Mongo Primary Health Care Unit,Primary Health Care Unit,MoH,3.9044,30.6116,GPS
South Sudan,Central Equatoria,Mongolla Primary Health Care Centre,Primary Health Care Centre,MoH,5.1966,31.7687,Geonames
South Sudan,Central Equatoria,Monoji Primary Health Care Unit,Primary Health Care Unit,MoH,4.8381,31.659,GPS
South Sudan,Central Equatoria,Moridi Primary Health Care Unit,Primary Health Care Unit,MoH,5.338,31.703,Geonames
South Sudan,Central Equatoria,Morobo Clinic () Primary Health Care Unit,Primary Health Care Unit,MoH,4.847,31.5811,Geonames
South Sudan,Central Equatoria,Morobo Primary Health Care Centre,Primary Health Care Centre,MoH,3.6878,30.7752,GPS
South Sudan,Central Equatoria,Morsack Primary Health Care Unit,Primary Health Care Unit,MoH,4.3876,31.5935,GPS
South Sudan,Central Equatoria,Morta Primary Health Care Unit,Primary Health Care Unit,MoH,4.3412,31.0753,GPS
South Sudan,Central Equatoria,Mugiri Primary Health Care Centre,Primary Health Care Centre,MoH,4.8884,31.8553,Geonames
South Sudan,Central Equatoria,Mugwo Primary Health Care Centre,Primary Health Care Centre,MoH,3.8898,30.7401,GPS
South Sudan,Central Equatoria,Mundari Bura Primary Health Care Centre,Primary Health Care Centre,MoH,5.6727,30.9746,GPS
South Sudan,Central Equatoria,Mundu Primary Health Care Unit,Primary Health Care Unit,MoH,4.0402,31.0162,GPS
South Sudan,Central Equatoria,Muni Primary Health Care Centre,Primary Health Care Centre,MoH,5.644,31.7202,GPS
South Sudan,Central Equatoria,Munuki Primary Health Care Centre,Primary Health Care Centre,MoH,4.8634,31.5793,GPS
South Sudan,Central Equatoria,Myikabur Primary Health Care Unit,Primary Health Care Unit,MoH,5.5554,31.7104,GPS
South Sudan,Central Equatoria,Nesitu Primary Health Care Unit,Primary Health Care Unit,MoH,4.6921,31.7032,Geonames
South Sudan,Central Equatoria,New Site Clinic Primary Health Care Centre,Primary Health Care Centre,MoH,4.8973,31.5893,Geonames
South Sudan,Central Equatoria,Ngangala Primary Health Care Unit,Primary Health Care Unit,MoH,4.7046,31.9203,GPS
South Sudan,Central Equatoria,Ngerjebi Primary Health Care Unit,Primary Health Care Unit,MoH,4.6573,31.7116,GPS
South Sudan,Central Equatoria,Ngulere Primary Health Care Unit,Primary Health Care Unit,MoH,4.692,31.9619,GPS
South Sudan,Central Equatoria,Nyagando Primary Health Care Unit,Primary Health Care Unit,MoH,4.0773,30.9855,GPS
South Sudan,Central Equatoria,Nyamani Primary Health Care Unit,Primary Health Care Unit,MoH,5.015,31.5574,GPS
South Sudan,Central Equatoria,Nyamin Primary Health Care Unit,Primary Health Care Unit,MoH,4.9313,31.3396,GPS
South Sudan,Central Equatoria,Nyanga Primary Health Care Unit,Primary Health Care Unit,MoH,5.7681,31.0418,GPS
South Sudan,Central Equatoria,Nyangele Primary Health Care Unit,Primary Health Care Unit,MoH,4.3582,30.9359,GPS
South Sudan,Central Equatoria,Nyara Primary Health Care Unit,Primary Health Care Unit,MoH,4.9167,31.25,Geonames
South Sudan,Central Equatoria,Nyarjuw Primary Health Care Unit,Primary Health Care Unit,MoH,4.2668,31.3529,GPS
South Sudan,Central Equatoria,Nyikabur Primary Health Care Unit,Primary Health Care Unit,MoH,5.5814,31.8247,Geonames
South Sudan,Central Equatoria,Nyokuron Primary Health Care Centre,Primary Health Care Centre,MoH,4.846,31.5791,Geonames
South Sudan,Central Equatoria,Nyomori Primary Health Care Unit,Primary Health Care Unit,MoH,4.8156,30.8832,GPS
South Sudan,Central Equatoria,Nyori Lasu Primary Health Care Unit,Primary Health Care Unit,MoH,3.9401,30.4239,Geonames
South Sudan,Central Equatoria,Nyori Primary Health Care Unit,Primary Health Care Unit,MoH,5.3178,31.7068,GPS
South Sudan,Central Equatoria,Nyoro Primary Health Care Unit,Primary Health Care Unit,MoH,4.8403,30.9381,GPS
South Sudan,Central Equatoria,Odemo Primary Health Care Unit,Primary Health Care Unit,MoH,4.7051,31.7585,GPS
South Sudan,Central Equatoria,Ombasi Primary Health Care Centre,Primary Health Care Centre,MoH,3.8888,30.6079,Geonames
South Sudan,Central Equatoria,Orphanage Primary Health Care Unit,Primary Health Care Unit,MoH,3.8782,31.6671,Geonames
South Sudan,Central Equatoria,Pagara Primary Health Care Unit,Primary Health Care Unit,MoH,6.0128,30.6656,GPS
South Sudan,Central Equatoria,Pager Lobonok Primary Health Care Unit,Primary Health Care Unit,MoH,4.3912,31.9211,GPS
South Sudan,Central Equatoria,Pager Rajaf Primary Health Care Unit,Primary Health Care Unit,MoH,4.6973,31.6085,GPS
South Sudan,Central Equatoria,Pager Military Primary Health Care Unit,Primary Health Care Unit,MoH,4.202,31.6344,Geonames
South Sudan,Central Equatoria,Pakula Primary Health Care Unit,Primary Health Care Unit,MoH,4.0406,30.8717,GPS
South Sudan,Central Equatoria,Panyume Primary Health Care Unit,Primary Health Care Unit,MoH,3.781,30.9509,GPS
South Sudan,Central Equatoria,Parasak / Barajak Primary Health Care Unit,Primary Health Care Unit,MoH,4.0723,31.0721,GPS
South Sudan,Central Equatoria,Payawa Primary Health Care Unit,Primary Health Care Unit,MoH,3.9538,30.7392,GPS
South Sudan,Central Equatoria,Perisa Primary Health Care Unit,Primary Health Care Unit,MoH,5.1768,31.0334,GPS
South Sudan,Central Equatoria,Pirisa Primary Health Care Unit,Primary Health Care Unit,MoH,5.1757,31.0336,Geonames
South Sudan,Central Equatoria,Pisak Primary Health Care Unit,Primary Health Care Unit,MoH,4.1509,30.5261,GPS
South Sudan,Central Equatoria,Pojur Primary Health Care Unit,Primary Health Care Unit,MoH,5.6448,31.6938,GPS
South Sudan,Central Equatoria,Rajaf East Primary Health Care Unit,Primary Health Care Unit,MoH,4.7516,31.6095,GPS
South Sudan,Central Equatoria,Rajaf Primary Health Care Unit,Primary Health Care Unit,MoH,4.75,31.579,GPS
South Sudan,Central Equatoria,Rajaf West Primary Health Care Unit,Primary Health Care Unit,MoH,4.7442,31.5922,GPS
South Sudan,Central Equatoria,Rijong Primary Health Care Unit,Primary Health Care Unit,MoH,5.3939,31.1692,GPS
South Sudan,Central Equatoria,Rijongu Primary Health Care Centre,Primary Health Care Centre,MoH,4.3301,30.9658,GPS
South Sudan,Central Equatoria,Robeke Primary Health Care Unit,Primary Health Care Unit,MoH,3.977,30.5386,Geonames
South Sudan,Central Equatoria,Rodo Primary Health Care Unit,Primary Health Care Unit,MoH,4.0431,31.5245,GPS
South Sudan,Central Equatoria,Rodoba Primary Health Care Unit,Primary Health Care Unit,MoH,3.6001,30.8072,GPS
South Sudan,Central Equatoria,Roja Primary Health Care Unit,Primary Health Care Unit,MoH,4.8155,30.8801,GPS
South Sudan,Central Equatoria,Rokon Primary Health Care Centre,Primary Health Care Centre,MoH,5.1304,30.9416,GPS
South Sudan,Central Equatoria,Romogi Primary Health Care Unit,Primary Health Care Unit,MoH,3.7868,31.7039,Geonames
South Sudan,Central Equatoria,Roronyo Primary Health Care Unit,Primary Health Care Unit,MoH,4.2404,30.715,Geonames
South Sudan,Central Equatoria,Rubeke Primary Health Care Unit,Primary Health Care Unit,MoH,3.9791,30.5429,GPS
South Sudan,Central Equatoria,Rungeta Primary Health Care Unit,Primary Health Care Unit,MoH,3.7832,31.3691,GPS
South Sudan,Central Equatoria,Rwonyi Primary Health Care Unit,Primary Health Care Unit,MoH,4.0559,30.715,GPS
South Sudan,Central Equatoria,Sacret Heart Primary Health Care Centre,Primary Health Care Centre,MoH,4.8286,31.6009,GPS
South Sudan,Central Equatoria,Sare Jale Primary Health Care Unit,Primary Health Care Unit,MoH,3.7053,31.6762,GPS
South Sudan,Central Equatoria,Saregoro Primary Health Care Unit,Primary Health Care Unit,MoH,3.8442,31.6788,GPS
South Sudan,Central Equatoria,Senema Primary Health Care Unit,Primary Health Care Unit,MoH,3.8151,30.5728,GPS
South Sudan,Central Equatoria,Seremon Primary Health Care Unit,Primary Health Care Unit,MoH,4.1548,30.8385,GPS
South Sudan,Central Equatoria,Sereng Primary Health Care Unit,Primary Health Care Unit,MoH,5.0796,30.951,GPS
South Sudan,Central Equatoria,Sermon Primary Health Care Unit,Primary Health Care Unit,MoH,5.0159,31.1132,GPS
South Sudan,Central Equatoria,Seven Days Adventist Primary Health Care Unit,Primary Health Care Unit,FBO/NGO,4.8565,31.5777,GPS
South Sudan,Central Equatoria,Sindiru Primary Health Care Unit,Primary Health Care Unit,MoH,4.4441,31.6083,GPS
South Sudan,Central Equatoria,Soka Primary Health Care Unit,Primary Health Care Unit,MoH,4.3495,30.7499,GPS
South Sudan,Central Equatoria,Sokare Primary Health Care Unit,Primary Health Care Unit,MoH,3.7958,31.4304,GPS
South Sudan,Central Equatoria,St Luke Primary Health Care Unit,Primary Health Care Unit,MoH,4.4385,31.0347,Geonames
South Sudan,Central Equatoria,St Martha Primary Health Care Unit,Primary Health Care Unit,MoH,4.0923,30.6765,Geonames
South Sudan,Central Equatoria,St. Bakhita Primary Health Care Centre,Primary Health Care Centre,MoH,4.1032,30.6324,GPS
South Sudan,Central Equatoria,St.Kizito Primary Health Care Centre,Primary Health Care Centre,MoH,4.86,31.5704,GPS
South Sudan,Central Equatoria,Sure Primary Health Care Unit,Primary Health Care Unit,MoH,4.8822,31.1771,GPS
South Sudan,Central Equatoria,Tali Primary Health Care Centre,Primary Health Care Centre,MoH,5.8975,30.7717,GPS
South Sudan,Central Equatoria,Tendere Primary Health Care Unit,Primary Health Care Unit,MoH,5.1078,31.6158,GPS
South Sudan,Central Equatoria,Terkeka . Primary Health Care Centre,Primary Health Care Centre,MoH,5.4384,31.7458,GPS
South Sudan,Central Equatoria,Tijor Primary Health Care Unit,Primary Health Care Unit,MoH,5.2593,31.2376,GPS
South Sudan,Central Equatoria,Tindilo Primary Health Care Unit,Primary Health Care Unit,MoH,5.6547,31.0578,GPS
South Sudan,Central Equatoria,Tirye Primary Health Care Unit,Primary Health Care Unit,MoH,3.8335,31.6407,Geonames
South Sudan,Central Equatoria,Toko-Kotulu Primary Health Care Unit,Primary Health Care Unit,MoH,4.9485,30.914,Geonames
South Sudan,Central Equatoria,Tombek Primary Health Care Centre,Primary Health Care Centre,MoH,5.8113,31.685,Geonames
South Sudan,Central Equatoria,Tombur Primary Health Care Unit,Primary Health Care Unit,MoH,4.9031,31.5462,Google Earth
South Sudan,Central Equatoria,Tore Primary Health Care Centre,Primary Health Care Centre,MoH,4.4913,30.1628,Geonames
South Sudan,Central Equatoria,Tukoro Primary Health Care Unit,Primary Health Care Unit,MoH,5.5841,31.7158,GPS
South Sudan,Central Equatoria,Tulyang Primary Health Care Unit,Primary Health Care Unit,MoH,4.7795,30.9211,GPS
South Sudan,Central Equatoria,Undukori Primary Health Care Unit,Primary Health Care Unit,MoH,3.9401,30.6901,GPS
South Sudan,Central Equatoria,Ustratuna Primary Health Care Centre,Primary Health Care Centre,MoH,4.8477,31.6046,GPS
South Sudan,Central Equatoria,Wadupe Primary Health Care Unit,Primary Health Care Unit,MoH,3.8867,30.7075,GPS
South Sudan,Central Equatoria,Walang Walang Primary Health Care Unit,Primary Health Care Unit,MoH,4.8834,31.6257,GPS
South Sudan,Central Equatoria,Walawalang Primary Health Care Unit,Primary Health Care Unit,MoH,5.0625,31.315,GPS
South Sudan,Central Equatoria,Wanyang Primary Health Care Unit,Primary Health Care Unit,MoH,5.3825,31.6803,GPS
South Sudan,Central Equatoria,Wonduruba Primary Health Care Centre,Primary Health Care Centre,MoH,4.5183,31.0328,GPS
South Sudan,Central Equatoria,Wudabi Primary Health Care Unit,Primary Health Care Unit,MoH,3.773,30.619,GPS
South Sudan,Central Equatoria,Wudu Bori Primary Health Care Unit,Primary Health Care Unit,MoH,5.7422,31.7006,GPS
South Sudan,Central Equatoria,Wuji Primary Health Care Unit,Primary Health Care Unit,MoH,3.8405,31.0768,GPS
South Sudan,Central Equatoria,Wujugani Primary Health Care Unit,Primary Health Care Unit,MoH,5.5093,31.7111,GPS
South Sudan,Central Equatoria,Wuna Torok Primary Health Care Unit,Primary Health Care Unit,MoH,5.0809,31.5744,GPS
South Sudan,Central Equatoria,Wurta Primary Health Care Unit,Primary Health Care Unit,MoH,3.6951,31.5522,GPS
South Sudan,Central Equatoria,Yabisak Primary Health Care Unit,Primary Health Care Unit,MoH,5.8216,31.7714,GPS
South Sudan,Central Equatoria,Yapa Primary Health Care Unit,Primary Health Care Unit,MoH,4.9886,31.6082,GPS
South Sudan,Central Equatoria,Yaya Primary Health Care Centre,Primary Health Care Centre,MoH,3.5499,30.8787,Geonames
South Sudan,Central Equatoria,Yebisak Primary Health Care Unit,Primary Health Care Unit,MoH,5.5781,31.7309,GPS
South Sudan,Central Equatoria,Yei County Hospital,County Hospital,MoH,4.0892,30.6735,Geonames
South Sudan,Central Equatoria,Yei River Primary Health Care Centre,Primary Health Care Centre,MoH,4.0881,30.6752,GPS
South Sudan,Central Equatoria,Yeribe Primary Health Care Unit,Primary Health Care Unit,MoH,3.9241,30.9581,Geonames
South Sudan,Central Equatoria,Yondoru Primary Health Care Unit,Primary Health Care Unit,MoH,4.2202,30.7661,GPS
South Sudan,Central Equatoria,Yondu Primary Health Care Unit,Primary Health Care Unit,MoH,3.6628,30.8983,GPS
South Sudan,Central Equatoria,Yr Logo 1 Primary Health Care Unit,Primary Health Care Unit,MoH,4.1417,30.564,GPS
South Sudan,Central Equatoria,Yr Morsak Primary Health Care Unit,Primary Health Care Unit,MoH,3.9413,30.611,GPS
South Sudan,Central Equatoria,Yugufe Primary Health Care Unit,Primary Health Care Unit,MoH,3.7158,30.6933,GPS
South Sudan,Eastern Equatoria,Abara Primary Health Care Unit,Primary Health Care Unit,MoH,4.0828,32.1803,Geonames
South Sudan,Eastern Equatoria,Adeba Primary Health Care Unit,Primary Health Care Unit,MoH,5.0096,32.3955,GPS
South Sudan,Eastern Equatoria,Afoyi (Kit 4) Primary Health Care Unit,Primary Health Care Unit,MoH,4.0762,31.9587,GPS
South Sudan,Eastern Equatoria,Agoro Primary Health Care Unit,Primary Health Care Unit,MoH,4.2699,32.172,GPS
South Sudan,Eastern Equatoria,AIC Lohutok Primary Health Care Unit,Primary Health Care Unit,MoH,4.64,32.854,GPS
South Sudan,Eastern Equatoria,Amee Primary Health Care Unit,Primary Health Care Unit,MoH,4.0604,32.069,Geonames
South Sudan,Eastern Equatoria,Amiru Primary Health Care Unit,Primary Health Care Unit,MoH,4.954,32.4297,GPS
South Sudan,Eastern Equatoria,Anzara Primary Health Care Unit,Primary Health Care Unit,MoH,3.5842,32.0922,Geonames
South Sudan,Eastern Equatoria,Arapi Primary Health Care Unit,Primary Health Care Unit,MoH,3.8474,31.9682,Geonames
South Sudan,Eastern Equatoria,Aromo Primary Health Care Unit,Primary Health Care Unit,MoH,5.1012,32.4808,GPS
South Sudan,Eastern Equatoria,Aromu Primary Health Care Unit,Primary Health Care Unit,MoH,5.1012,32.4808,GPS
South Sudan,Eastern Equatoria,Ateda Primary Health Care Unit,Primary Health Care Unit,MoH,3.833,33.4615,Geonames
South Sudan,Eastern Equatoria,Ayii Primary Health Care Unit,Primary Health Care Unit,MoH,3.8168,32.7621,Geonames
South Sudan,Eastern Equatoria,Bilinyang Primary Health Care Unit,Primary Health Care Unit,MoH,3.625,32.1539,GPS
South Sudan,Eastern Equatoria,Bira Primary Health Care Centre,Primary Health Care Centre,MoH,3.8331,33.5821,GPS
South Sudan,Eastern Equatoria,Borongole Beth Israel Primary Health Care Unit,Primary Health Care Unit,MoH,3.9064,31.9368,GPS
South Sudan,Eastern Equatoria,Bule Primary Health Care Unit,Primary Health Care Unit,MoH,5.003,32.45,Geonames
South Sudan,Eastern Equatoria,Bur Muttaram Primary Health Care Unit,Primary Health Care Unit,MoH,4.5259,32.4941,GPS
South Sudan,Eastern Equatoria,Bur Primary Health Care Unit,Primary Health Care Unit,MoH,4.5259,32.4941,GPS
South Sudan,Eastern Equatoria,Bura Primary Health Care Unit,Primary Health Care Unit,MoH,5.0946,32.4808,GPS
South Sudan,Eastern Equatoria,Caigon Primary Health Care Unit,Primary Health Care Unit,MoH,3.87,32.48,Geonames
South Sudan,Eastern Equatoria,Calamini Primary Health Care Unit,Primary Health Care Unit,MoH,4.4993,32.9096,GPS
South Sudan,Eastern Equatoria,Chahare Primary Health Care Centre,Primary Health Care Centre,MoH,4.2896,33.1445,Geonames
South Sudan,Eastern Equatoria,Chawa Primary Health Care Unit,Primary Health Care Unit,MoH,4.7334,33.244,GPS
South Sudan,Eastern Equatoria,CHilok Primary Health Care Unit,Primary Health Care Unit,MoH,3.9924,33.05,GPS
South Sudan,Eastern Equatoria,Chorocol Boma Primary Health Care Centre,Primary Health Care Centre,MoH,4.2234,33.1947,GPS
South Sudan,Eastern Equatoria,Chumatori Primary Health Care Unit,Primary Health Care Unit,MoH,4.9133,33.5585,GPS
South Sudan,Eastern Equatoria,Dioces Of Torit Primary Health Care Unit,Primary Health Care Unit,MoH,3.8699,32.4745,GPS
South Sudan,Eastern Equatoria,Frak-Sika Primary Health Care Unit,Primary Health Care Unit,MoH,4.3827,33.3487,GPS
South Sudan,Eastern Equatoria,Ganzi Primary Health Care Unit,Primary Health Care Unit,MoH,3.6142,32.1633,GPS
South Sudan,Eastern Equatoria,Gilo Primary Health Care Unit,Primary Health Care Unit,MoH,4.0464,32.8339,Geonames
South Sudan,Eastern Equatoria,Good Shephard Primary Health Care Centre,Primary Health Care Centre,MoH,5.4987,34.7722,GPS
South Sudan,Eastern Equatoria,Gunyoro Primary Health Care Unit,Primary Health Care Unit,MoH,4.2356,32.5427,GPS
South Sudan,Eastern Equatoria,Haba Primary Health Care Unit,Primary Health Care Unit,MoH,4.8377,32.6365,Geonames
South Sudan,Eastern Equatoria,Haforiere Primary Health Care Unit,Primary Health Care Unit,MoH,4.4495,32.8168,GPS
South Sudan,Eastern Equatoria,Hai Lotuko Primary Health Care Centre,Primary Health Care Centre,MoH,4.4131,32.5708,GPS
South Sudan,Eastern Equatoria,Haliba Primary Health Care Unit,Primary Health Care Unit,MoH,4.4516,33.4448,GPS
South Sudan,Eastern Equatoria,Harihlo Primary Health Care Unit,Primary Health Care Unit,MoH,4.9131,32.6772,GPS
South Sudan,Eastern Equatoria,Hatire Primary Health Care Centre,Primary Health Care Centre,MoH,4.0336,32.8237,Geonames
South Sudan,Eastern Equatoria,Hidonge Ifura Primary Health Care Unit,Primary Health Care Unit,MoH,4.5861,32.7969,GPS
South Sudan,Eastern Equatoria,Hidonge Malangit Primary Health Care Unit,Primary Health Care Unit,MoH,4.5982,32.8171,GPS
South Sudan,Eastern Equatoria,Hilleu Primary Health Care Centre,Primary Health Care Centre,MoH,4.322,32.6461,GPS
South Sudan,Eastern Equatoria,Hiyala Primary Health Care Centre,Primary Health Care Centre,MoH,4.4642,32.8649,GPS
South Sudan,Eastern Equatoria,Hope for south sudan Primary Health Care Unit,Primary Health Care Unit,MoH,4.76,33.5674,Geonames
South Sudan,Eastern Equatoria,Huma Primary Health Care Unit,Primary Health Care Unit,MoH,4.1729,33.0206,GPS
South Sudan,Eastern Equatoria,Ibalany Primary Health Care Unit,Primary Health Care Unit,MoH,4.4166,32.5474,Geonames
South Sudan,Eastern Equatoria,Ibele Primary Health Care Unit,Primary Health Care Unit,MoH,4.6797,32.7609,GPS
South Sudan,Eastern Equatoria,Ibele Primary Health Care Unit,Primary Health Care Unit,MoH,4.6799,32.7606,GPS
South Sudan,Eastern Equatoria,Iboni Primary Health Care Unit,Primary Health Care Unit,MoH,4.662,32.7966,GPS
South Sudan,Eastern Equatoria,Ibonni Primary Health Care Unit,Primary Health Care Unit,MoH,4.662,32.7966,GPS
South Sudan,Eastern Equatoria,Idali Primary Health Care Unit,Primary Health Care Unit,MoH,4.704,32.6833,GPS
South Sudan,Eastern Equatoria,Idali Primary Health Care Unit,Primary Health Care Unit,MoH,4.7076,32.6862,GPS
South Sudan,Eastern Equatoria,Ikwoto Primary Health Care Centre,Primary Health Care Centre,MoH,4.0797,33.0986,Geonames
South Sudan,Eastern Equatoria,Ilieu Primary Health Care Unit,Primary Health Care Unit,MoH,4.5031,32.9753,GPS
South Sudan,Eastern Equatoria,Iloli Primary Health Care Unit,Primary Health Care Unit,MoH,4.4368,32.9119,GPS
South Sudan,Eastern Equatoria,Imehejek 1 Primary Health Care Centre,Primary Health Care Centre,MoH,4.7818,32.7615,GPS
South Sudan,Eastern Equatoria,Imehejek 2 Primary Health Care Unit,Primary Health Care Unit,MoH,4.7603,32.7605,Geonames
South Sudan,Eastern Equatoria,Imilai Primary Health Care Unit,Primary Health Care Unit,MoH,4.1674,32.8658,GPS
South Sudan,Eastern Equatoria,Imokoru Primary Health Care Unit,Primary Health Care Unit,MoH,4.2035,32.5504,GPS
South Sudan,Eastern Equatoria,Imotong Primary Health Care Centre,Primary Health Care Centre,MoH,4.171,32.8418,Geonames
South Sudan,Eastern Equatoria,Imuluha Primary Health Care Unit,Primary Health Care Unit,MoH,4.704,32.7761,GPS
South Sudan,Eastern Equatoria,Imurok Primary Health Care Unit,Primary Health Care Unit,MoH,4.3152,32.4325,GPS
South Sudan,Eastern Equatoria,Isaloro Primary Health Care Unit,Primary Health Care Unit,MoH,4.3802,32.485,GPS
South Sudan,Eastern Equatoria,Isore Primary Health Care Unit,Primary Health Care Unit,MoH,3.91,32.8,GPS
South Sudan,Eastern Equatoria,Jie Primary Health Care Unit,Primary Health Care Unit,MoH,5.3909,33.6912,GPS
South Sudan,Eastern Equatoria,Kaba / Haba Primary Health Care Unit,Primary Health Care Unit,MoH,4.8378,32.622,GPS
South Sudan,Eastern Equatoria,Kadumakuc Primary Health Care Unit,Primary Health Care Unit,MoH,4.2166,33.5999,GPS
South Sudan,Eastern Equatoria,Kalacha Primary Health Care Unit,Primary Health Care Unit,MoH,4.6822,34.1065,GPS
South Sudan,Eastern Equatoria,Kalisoni Primary Health Care Unit,Primary Health Care Unit,MoH,4.0308,32.4876,Geonames
South Sudan,Eastern Equatoria,Kaludo Primary Health Care Unit,Primary Health Care Unit,MoH,4.7373,34.1,Geonames
South Sudan,Eastern Equatoria,Kalupe Primary Health Care Unit,Primary Health Care Unit,MoH,4.7763,33.8044,GPS
South Sudan,Eastern Equatoria,Kapeta Primary Health Care Unit,Primary Health Care Unit,MoH,4.3092,33.6425,GPS
South Sudan,Eastern Equatoria,Kapoeta County Hospital,County Hospital,MoH,4.7724,33.5916,GPS
South Sudan,Eastern Equatoria,Kapoeta Misson Hospital Primary Health Care Centre,Primary Health Care Centre,FBO/NGO,4.7439,33.6012,GPS
South Sudan,Eastern Equatoria,Kathac Primary Health Care Unit,Primary Health Care Unit,MoH,4.228,33.4861,GPS
South Sudan,Eastern Equatoria,Kerepi Primary Health Care Unit,Primary Health Care Unit,MoH,3.9025,31.9248,GPS
South Sudan,Eastern Equatoria,Khomush Primary Health Care Unit,Primary Health Care Unit,MoH,4.2158,32.3772,GPS
South Sudan,Eastern Equatoria,Kibak Primary Health Care Unit,Primary Health Care Unit,MoH,4.9956,33.5793,Geonames
South Sudan,Eastern Equatoria,Kibogoro Primary Health Care Unit,Primary Health Care Unit,MoH,4.4021,33.5218,GPS
South Sudan,Eastern Equatoria,Kicenga Primary Health Care Unit,Primary Health Care Unit,MoH,3.8938,32.6546,GPS
South Sudan,Eastern Equatoria,Kichenga Primary Health Care Unit,Primary Health Care Unit,MoH,3.8776,32.6268,GPS
South Sudan,Eastern Equatoria,Kidepo Primary Health Care Unit,Primary Health Care Unit,MoH,4.6602,33.1577,GPS
South Sudan,Eastern Equatoria,Kikilai Primary Health Care Unit,Primary Health Care Unit,MoH,4.1332,33.6022,GPS
South Sudan,Eastern Equatoria,Kimotong Primary Health Care Centre,Primary Health Care Centre,MoH,4.6849,33.264,GPS
South Sudan,Eastern Equatoria,Komiri Primary Health Care Centre,Primary Health Care Centre,MoH,4.2324,33.4928,GPS
South Sudan,Eastern Equatoria,Kudo Primary Health Care Centre,Primary Health Care Centre,MoH,4.5485,32.2278,GPS
South Sudan,Eastern Equatoria,Kuji Primary Health Care Unit,Primary Health Care Unit,MoH,4.954,32.4287,Geonames
South Sudan,Eastern Equatoria,Kujikor Primary Health Care Unit,Primary Health Care Unit,MoH,4.9568,32.4289,GPS
South Sudan,Eastern Equatoria,Kuron Phc Primary Health Care Centre,Primary Health Care Centre,MoH,5.7049,34.565,GPS
South Sudan,Eastern Equatoria,Lacharok Primary Health Care Unit,Primary Health Care Unit,MoH,4.8668,32.7017,Geonames
South Sudan,Eastern Equatoria,Lafon _1 Primary Health Care Centre,Primary Health Care Centre,MoH,5.0304,32.4761,GPS
South Sudan,Eastern Equatoria,Lagii Primary Health Care Unit,Primary Health Care Unit,MoH,3.97,32.0524,Geonames
South Sudan,Eastern Equatoria,lalanga Primary Health Care Unit,Primary Health Care Unit,MoH,4.5908,32.9032,GPS
South Sudan,Eastern Equatoria,Lalanga Primary Health Care Unit,Primary Health Care Unit,MoH,4.5909,32.9034,GPS
South Sudan,Eastern Equatoria,Langaro Primary Health Care Unit,Primary Health Care Unit,MoH,4.4583,32.2992,GPS
South Sudan,Eastern Equatoria,Lauro Primary Health Care Centre,Primary Health Care Centre,MoH,4.3399,33.6746,GPS
South Sudan,Eastern Equatoria,Lawaci Primary Health Care Unit,Primary Health Care Unit,MoH,3.8718,32.4794,Geonames
South Sudan,Eastern Equatoria,Lelang / Ohilang Primary Health Care Unit,Primary Health Care Unit,MoH,4.6745,32.7807,GPS
South Sudan,Eastern Equatoria,Lerwa Primary Health Care Unit,Primary Health Care Unit,MoH,3.8597,32.484,GPS
South Sudan,Eastern Equatoria,Loa Mission Primary Health Care Centre,Primary Health Care Centre,FBO/NGO,3.8062,31.9621,Geonames
South Sudan,Eastern Equatoria,Loa Primary Health Care Unit,Primary Health Care Unit,MoH,3.7977,31.9824,GPS
South Sudan,Eastern Equatoria,Lobira Primary Health Care Unit,Primary Health Care Unit,MoH,4.3964,33.0607,GPS
South Sudan,Eastern Equatoria,Lobone Primary Health Care Centre,Primary Health Care Centre,MoH,3.7979,32.7613,GPS
South Sudan,Eastern Equatoria,Loboya Primary Health Care Unit,Primary Health Care Unit,MoH,4.0546,32.974,GPS
South Sudan,Eastern Equatoria,Lobwaya Primary Health Care Unit,Primary Health Care Unit,MoH,4.0503,32.9776,GPS
South Sudan,Eastern Equatoria,Locharok Primary Health Care Unit,Primary Health Care Unit,MoH,4.867,32.7019,GPS
South Sudan,Eastern Equatoria,Lodurumo Primary Health Care Unit,Primary Health Care Unit,MoH,4.2242,33.1945,Geonames
South Sudan,Eastern Equatoria,Lodwara Primary Health Care Unit,Primary Health Care Unit,MoH,4.1942,33.2061,GPS
South Sudan,Eastern Equatoria,Lofi Primary Health Care Centre,Primary Health Care Centre,MoH,4.2281,32.9852,GPS
South Sudan,Eastern Equatoria,Lofiri Primary Health Care Unit,Primary Health Care Unit,MoH,4.504,32.3485,GPS
South Sudan,Eastern Equatoria,Lofulung Primary Health Care Unit,Primary Health Care Unit,MoH,3.8024,33.4329,Geonames
South Sudan,Eastern Equatoria,Loganawati Primary Health Care Unit,Primary Health Care Unit,MoH,4.8414,32.6909,GPS
South Sudan,Eastern Equatoria,Logire Hutuk Hingya (Kapoeta) Primary Health Care Unit,Primary Health Care Unit,MoH,4.7039,33.9115,Geonames
South Sudan,Eastern Equatoria,Logire Hutuk Hingya _Ikotos Primary Health Care Unit,Primary Health Care Unit,MoH,4.015,33.0211,Geonames
South Sudan,Eastern Equatoria,Lohidele Primary Health Care Unit,Primary Health Care Unit,MoH,4.3798,33.3844,Geonames
South Sudan,Eastern Equatoria,Lohotuk Aic Primary Health Care Centre,Primary Health Care Centre,MoH,4.6424,32.8562,GPS
South Sudan,Eastern Equatoria,Lojiong Primary Health Care Unit,Primary Health Care Unit,MoH,4.2867,33.432,GPS
South Sudan,Eastern Equatoria,Lokidele Primary Health Care Centre,Primary Health Care Centre,MoH,4.2246,33.5529,GPS
South Sudan,Eastern Equatoria,Lokoges Primary Health Care Unit,Primary Health Care Unit,MoH,5.1931,33.4998,Geonames
South Sudan,Eastern Equatoria,Lokwamor Primary Health Care Unit,Primary Health Care Unit,MoH,4.8616,33.4822,GPS
South Sudan,Eastern Equatoria,Lolere Primary Health Care Unit,Primary Health Care Unit,MoH,4.4351,32.4806,GPS
South Sudan,Eastern Equatoria,Lomariti Primary Health Care Unit,Primary Health Care Unit,MoH,3.88,32.72,GPS
South Sudan,Eastern Equatoria,Lomeyan North Primary Health Care Unit,Primary Health Care Unit,MoH,4.9077,33.451,GPS
South Sudan,Eastern Equatoria,Loming Primary Health Care Unit,Primary Health Care Unit,MoH,4.3651,33.6721,GPS
South Sudan,Eastern Equatoria,Loming Primary Health Care Unit,Primary Health Care Unit,MoH,4.5228,32.9299,GPS
South Sudan,Eastern Equatoria,lomwoo Primary Health Care Unit,Primary Health Care Unit,MoH,4.0844,32.9354,GPS
South Sudan,Eastern Equatoria,Lomwoo Primary Health Care Unit,Primary Health Care Unit,MoH,4.0844,32.9354,GPS
South Sudan,Eastern Equatoria,Longario Primary Health Care Unit,Primary Health Care Unit,MoH,3.8308,33.5663,GPS
South Sudan,Eastern Equatoria,Longeleya Primary Health Care Unit,Primary Health Care Unit,MoH,4.7631,33.5935,Geonames
South Sudan,Eastern Equatoria,Longiro Primary Health Care Unit,Primary Health Care Unit,MoH,4.7889,32.6278,GPS
South Sudan,Eastern Equatoria,Longiro Primary Health Care Unit,Primary Health Care Unit,MoH,4.8973,32.6027,GPS
South Sudan,Eastern Equatoria,longnawati Primary Health Care Unit,Primary Health Care Unit,MoH,4.8388,32.6896,Geonames
South Sudan,Eastern Equatoria,Longu Primary Health Care Unit,Primary Health Care Unit,MoH,3.5665,32.1325,GPS
South Sudan,Eastern Equatoria,Loolim Primary Health Care Unit,Primary Health Care Unit,MoH,4.5879,34.045,GPS
South Sudan,Eastern Equatoria,Lopetet Primary Health Care Unit,Primary Health Care Unit,MoH,5.012,33.5144,Geonames
South Sudan,Eastern Equatoria,Lopus Primary Health Care Unit,Primary Health Care Unit,MoH,3.8041,33.4344,GPS
South Sudan,Eastern Equatoria,Lorema Primary Health Care Centre,Primary Health Care Centre,MoH,4.1606,33.6607,GPS
South Sudan,Eastern Equatoria,Lorima Primary Health Care Centre,Primary Health Care Centre,MoH,4.0647,33.157,GPS
South Sudan,Eastern Equatoria,Loriyok Primary Health Care Unit,Primary Health Care Unit,MoH,4.5192,33.3231,GPS
South Sudan,Eastern Equatoria,Loronyo Primary Health Care Unit,Primary Health Care Unit,MoH,4.6494,32.6454,GPS
South Sudan,Eastern Equatoria,Lotimor Primary Health Care Unit,Primary Health Care Unit,MoH,5.31,35.0749,GPS
South Sudan,Eastern Equatoria,Lotome Primary Health Care Unit,Primary Health Care Unit,MoH,3.9749,33.45,GPS
South Sudan,Eastern Equatoria,Loulang Primary Health Care Unit,Primary Health Care Unit,MoH,4.2404,32.3769,Geonames
South Sudan,Eastern Equatoria,Lowoa Mission CDOT Primary Health Care Centre,Primary Health Care Centre,FBO/NGO,3.8073,31.9621,Geonames
South Sudan,Eastern Equatoria,Lowoi Primary Health Care Centre,Primary Health Care Centre,MoH,4.4899,32.1676,Geonames
South Sudan,Eastern Equatoria,Lowoyakali Primary Health Care Unit,Primary Health Care Unit,MoH,4.6782,33.8159,GPS
South Sudan,Eastern Equatoria,Lwala Primary Health Care Unit,Primary Health Care Unit,MoH,4.8075,32.477,Geonames
South Sudan,Eastern Equatoria,Magwi CDOT Primary Health Care Unit,Primary Health Care Unit,MoH,4.1229,32.3043,GPS
South Sudan,Eastern Equatoria,Magwi Dot Primary Health Care Centre,Primary Health Care Centre,MoH,4.1229,32.3043,GPS
South Sudan,Eastern Equatoria,Magwi Primary Health Care Centre,Primary Health Care Centre,MoH,4.1357,32.3009,Geonames
South Sudan,Eastern Equatoria,Maji Primary Health Care Unit,Primary Health Care Unit,MoH,4.0907,32.2087,GPS
South Sudan,Eastern Equatoria,Malaya Primary Health Care Unit,Primary Health Care Unit,MoH,4.41,32.5721,Geonames
South Sudan,Eastern Equatoria,Malnyang Primary Health Care Unit,Primary Health Care Unit,MoH,5.043,32.3914,GPS
South Sudan,Eastern Equatoria,Mangalla Primary Health Care Unit,Primary Health Care Unit,MoH,4.2609,33.1878,GPS
South Sudan,Eastern Equatoria,Masindi Primary Health Care Unit,Primary Health Care Unit,MoH,3.5899,32.1775,GPS
South Sudan,Eastern Equatoria,Mogos Primary Health Care Unit,Primary Health Care Unit,MoH,5.2675,33.7712,Geonames
South Sudan,Eastern Equatoria,Mogosa Primary Health Care Centre,Primary Health Care Centre,MoH,5.1248,33.7906,Geonames
South Sudan,Eastern Equatoria,Moli Primary Health Care Centre,Primary Health Care Centre,MoH,4.0308,31.9546,Geonames
South Sudan,Eastern Equatoria,Moliadro Primary Health Care Unit,Primary Health Care Unit,MoH,3.988,31.8685,GPS
South Sudan,Eastern Equatoria,Momoria Primary Health Care Unit,Primary Health Care Unit,MoH,4.1123,33.0853,GPS
South Sudan,Eastern Equatoria,Mossigo Primary Health Care Unit,Primary Health Care Unit,MoH,5.2675,33.7712,Geonames
South Sudan,Eastern Equatoria,Moti Primary Health Care Unit,Primary Health Care Unit,MoH,4.334,32.5483,Geonames
South Sudan,Eastern Equatoria,Mugali Ii Primary Health Care Centre,Primary Health Care Centre,MoH,3.5665,32.1972,Geonames
South Sudan,Eastern Equatoria,Mugali Primary Health Care Unit,Primary Health Care Unit,MoH,3.5667,32.1976,Geonames
South Sudan,Eastern Equatoria,Muhatiga Primary Health Care Unit,Primary Health Care Unit,MoH,4.5103,32.7844,GPS
South Sudan,Eastern Equatoria,Mura Lopit Primary Health Care Unit,Primary Health Care Unit,MoH,4.7948,32.725,GPS
South Sudan,Eastern Equatoria,Mura Lopit Primary Health Care Unit,Primary Health Care Unit,MoH,4.7948,32.725,GPS
South Sudan,Eastern Equatoria,Mura-Hatiha Primary Health Care Unit,Primary Health Care Unit,MoH,4.5103,32.7844,GPS
South Sudan,Eastern Equatoria,Mutebwa Primary Health Care Unit,Primary Health Care Unit,MoH,3.5667,32.1976,Geonames
South Sudan,Eastern Equatoria,Nachilagur Primary Health Care Unit,Primary Health Care Unit,MoH,4.6993,33.5662,Geonames
South Sudan,Eastern Equatoria,Nachukut Primary Health Care Unit,Primary Health Care Unit,MoH,4.9097,33.9649,Geonames
South Sudan,Eastern Equatoria,Nadapal Primary Health Care Unit,Primary Health Care Unit,MoH,4.4487,34.1845,GPS
South Sudan,Eastern Equatoria,Nagishot Primary Health Care Unit,Primary Health Care Unit,MoH,4.2673,33.5663,GPS
South Sudan,Eastern Equatoria,Nakoringole Primary Health Care Unit,Primary Health Care Unit,MoH,3.863,33.4763,GPS
South Sudan,Eastern Equatoria,Nakwa Khor Komuge Primary Health Care Unit,Primary Health Care Unit,MoH,5.0672,33.5535,GPS
South Sudan,Eastern Equatoria,Naliel Primary Health Care Unit,Primary Health Care Unit,MoH,4.8233,34.2201,GPS
South Sudan,Eastern Equatoria,Nalingaro Primary Health Care Unit,Primary Health Care Unit,MoH,4.1604,33.6395,GPS
South Sudan,Eastern Equatoria,Nalingaro Primary Health Care Unit,Primary Health Care Unit,MoH,4.7214,33.6211,GPS
South Sudan,Eastern Equatoria,Naminitoit Primary Health Care Unit,Primary Health Care Unit,MoH,5.2012,33.5142,Geonames
South Sudan,Eastern Equatoria,Namonichek Primary Health Care Unit,Primary Health Care Unit,MoH,5.2795,33.3924,Geonames
South Sudan,Eastern Equatoria,Namoroyang Primary Health Care Unit,Primary Health Care Unit,MoH,4.6259,33.6568,GPS
South Sudan,Eastern Equatoria,Namorupus Primary Health Care Unit,Primary Health Care Unit,MoH,5.4708,34.647,GPS
South Sudan,Eastern Equatoria,Nanyangachor Primary Health Care Unit,Primary Health Care Unit,MoH,5.49,34.81,Geonames
South Sudan,Eastern Equatoria,Napep Primary Health Care Unit,Primary Health Care Unit,MoH,4.3524,33.5492,GPS
South Sudan,Eastern Equatoria,Napotpot (Loburi) Primary Health Care Unit,Primary Health Care Unit,MoH,4.6267,33.8991,GPS
South Sudan,Eastern Equatoria,Narus Dot Primary Health Care Centre,Primary Health Care Centre,MoH,4.5048,34.1701,GPS
South Sudan,Eastern Equatoria,Nasigirate Primary Health Care Unit,Primary Health Care Unit,MoH,4.9753,33.6991,Geonames
South Sudan,Eastern Equatoria,Nathilani Primary Health Care Unit,Primary Health Care Unit,MoH,4.3345,33.6791,Geonames
South Sudan,Eastern Equatoria,Natinga Primary Health Care Unit,Primary Health Care Unit,MoH,4.1961,33.9454,GPS
South Sudan,Eastern Equatoria,National Health Insurance Fund Primary Health Care Unit,Primary Health Care Unit,MoH,4.4186,32.5447,Geonames
South Sudan,Eastern Equatoria,New Cush Primary Health Care Unit,Primary Health Care Unit,MoH,4.1059,33.8418,GPS
South Sudan,Eastern Equatoria,New Site Wodran Primary Health Care Centre,Primary Health Care Centre,MoH,4.2504,34.0015,Geonames
South Sudan,Eastern Equatoria,Ngaluma Primary Health Care Unit,Primary Health Care Unit,MoH,3.9797,33.0067,GPS
South Sudan,Eastern Equatoria,Ngaluma Primary Health Care Unit,Primary Health Care Unit,MoH,3.9799,33.067,GPS
South Sudan,Eastern Equatoria,Ngatuba Primary Health Care Unit,Primary Health Care Unit,MoH,4.2567,33.6992,GPS
South Sudan,Eastern Equatoria,Nimule Cdot Primary Health Care Centre,Primary Health Care Centre,MoH,3.585,32.0862,GPS
South Sudan,Eastern Equatoria,Nimule County Hospital,County Hospital,MoH,3.6003,32.0567,GPS
South Sudan,Eastern Equatoria,Normeca State Hospital,State Hospital,MoH,4.725,33.5315,GPS
South Sudan,Eastern Equatoria,Npa Chukudum County Hospital,County Hospital,MoH,4.2561,33.4561,GPS
South Sudan,Eastern Equatoria,Nyaciga Jun. Offi. Military Academy (Njoma) Primary Health Care Centre,Primary Health Care Centre,MoH,3.8404,32.2517,GPS
South Sudan,Eastern Equatoria,Nyidida Primary Health Care Unit,Primary Health Care Unit,MoH,5.102,32.4686,Geonames
South Sudan,Eastern Equatoria,Nyong Primary Health Care Unit,Primary Health Care Unit,MoH,4.4185,32.5447,Geonames
South Sudan,Eastern Equatoria,Obbo Primary Health Care Centre,Primary Health Care Centre,MoH,4.0446,32.4242,GPS
South Sudan,Eastern Equatoria,Offi _Kudo Primary Health Care Unit,Primary Health Care Unit,MoH,4.5022,32.5838,Geonames
South Sudan,Eastern Equatoria,Offi Longelwa Primary Health Care Unit,Primary Health Care Unit,MoH,3.8404,32.2517,GPS
South Sudan,Eastern Equatoria,Offiriha Torit _Ikotos Primary Health Care Unit,Primary Health Care Unit,MoH,4.2801,33.0697,Geonames
South Sudan,Eastern Equatoria,Offiriha Torit Primary Health Care Unit,Primary Health Care Unit,MoH,4.4217,32.6441,Geonames
South Sudan,Eastern Equatoria,Ofiri Primary Health Care Unit,Primary Health Care Unit,MoH,4.1397,33.0572,Geonames
South Sudan,Eastern Equatoria,Ofirika Primary Health Care Unit,Primary Health Care Unit,MoH,4.1995,32.1934,GPS
South Sudan,Eastern Equatoria,Ogire Primary Health Care Unit,Primary Health Care Unit,MoH,4.3596,32.5513,GPS
South Sudan,Eastern Equatoria,Ogurung Primary Health Care Unit,Primary Health Care Unit,MoH,4.3959,32.9032,GPS
South Sudan,Eastern Equatoria,Ohila Primary Health Care Unit,Primary Health Care Unit,MoH,4.6547,32.4814,GPS
South Sudan,Eastern Equatoria,Ohila Primary Health Care Unit,Primary Health Care Unit,MoH,4.6547,32.4814,GPS
South Sudan,Eastern Equatoria,Ohiri Primary Health Care Unit,Primary Health Care Unit,MoH,4.7308,32.5104,GPS
South Sudan,Eastern Equatoria,Okorohore Primary Health Care Centre,Primary Health Care Centre,MoH,4.1572,33.1696,GPS
South Sudan,Eastern Equatoria,Olianga Primary Health Care Unit,Primary Health Care Unit,MoH,4.3416,32.9213,GPS
South Sudan,Eastern Equatoria,Olikwi Primary Health Care Unit,Primary Health Care Unit,MoH,3.5709,32.0791,GPS
South Sudan,Eastern Equatoria,Omeo Primary Health Care Unit,Primary Health Care Unit,MoH,4.2099,32.2477,GPS
South Sudan,Eastern Equatoria,Ongelet Primary Health Care Unit,Primary Health Care Unit,MoH,4.6092,32.6768,GPS
South Sudan,Eastern Equatoria,Opari 1 Primary Health Care Centre,Primary Health Care Centre,MoH,3.9234,32.0675,Geonames
South Sudan,Eastern Equatoria,Oriaju Primary Health Care Unit,Primary Health Care Unit,MoH,4.5717,32.7278,GPS
South Sudan,Eastern Equatoria,Orobe Primary Health Care Unit,Primary Health Care Unit,MoH,3.8573,31.9584,Geonames
South Sudan,Eastern Equatoria,Osito Primary Health Care Unit,Primary Health Care Unit,MoH,4.5542,32.4878,GPS
South Sudan,Eastern Equatoria,Otose Primary Health Care Unit,Primary Health Care Unit,MoH,4.2742,32.3847,GPS
South Sudan,Eastern Equatoria,Owinykibul Primary Health Care Unit,Primary Health Care Unit,MoH,3.8411,32.2657,GPS
South Sudan,Eastern Equatoria,Owinykibul Primary Health Care Unit,Primary Health Care Unit,MoH,3.8411,32.2657,GPS
South Sudan,Eastern Equatoria,Pachidi Primary Health Care Unit,Primary Health Care Unit,MoH,4.8057,32.4766,GPS
South Sudan,Eastern Equatoria,Pageri Primary Health Care Unit,Primary Health Care Unit,MoH,3.8673,31.9572,Geonames
South Sudan,Eastern Equatoria,Pajok Primary Health Care Centre,Primary Health Care Centre,MoH,3.8597,32.4839,Geonames
South Sudan,Eastern Equatoria,Palonganyi Primary Health Care Unit,Primary Health Care Unit,MoH,4.1271,32.3166,GPS
South Sudan,Eastern Equatoria,Palotaka Primary Health Care Unit,Primary Health Care Unit,MoH,4.023,32.472,GPS
South Sudan,Eastern Equatoria,Palwar Primary Health Care Unit,Primary Health Care Unit,MoH,3.9175,32.598,GPS
South Sudan,Eastern Equatoria,Panyakwawa Primary Health Care Centre,Primary Health Care Centre,MoH,4.0825,32.1788,GPS
South Sudan,Eastern Equatoria,Pareri Primary Health Care Centre,Primary Health Care Centre,MoH,3.8566,31.9605,Geonames
South Sudan,Eastern Equatoria,Paringa Primary Health Care Unit,Primary Health Care Unit,MoH,4.8478,33.5633,GPS
South Sudan,Eastern Equatoria,Patibi Primary Health Care Unit,Primary Health Care Unit,MoH,3.8805,32.0191,GPS
South Sudan,Eastern Equatoria,Payira Primary Health Care Unit,Primary Health Care Unit,MoH,4.8082,32.4756,Geonames
South Sudan,Eastern Equatoria,Piobokoi Primary Health Care Unit,Primary Health Care Unit,MoH,4.085,33.7589,GPS
South Sudan,Eastern Equatoria,Pogee Primary Health Care Unit,Primary Health Care Unit,MoH,3.7667,32.5188,GPS
South Sudan,Eastern Equatoria,Ramula Boma Primary Health Care Unit,Primary Health Care Unit,MoH,4.088,33.2458,GPS
South Sudan,Eastern Equatoria,Riwoto Primary Health Care Centre,Primary Health Care Centre,MoH,4.8822,33.5058,Geonames
South Sudan,Eastern Equatoria,Smc/Narus Primary Health Care Centre,Primary Health Care Centre,FBO/NGO,4.5034,34.1618,GPS
South Sudan,Eastern Equatoria,Sudanese Gospel Mission Primary Health Care Centre,Primary Health Care Centre,FBO/NGO,3.7988,31.9814,GPS
South Sudan,Eastern Equatoria,Taar Primary Health Care Unit,Primary Health Care Unit,MoH,5.1055,32.4788,Geonames
South Sudan,Eastern Equatoria,Tirangore Primary Health Care Unit,Primary Health Care Unit,MoH,4.4904,32.7967,GPS
South Sudan,Eastern Equatoria,Torit State Hospital,State Hospital,MoH,4.4063,32.576,Geonames
South Sudan,Eastern Equatoria,Tseretenya Primary Health Care Unit,Primary Health Care Unit,MoH,3.8317,33.22,GPS
South Sudan,Eastern Equatoria,Tuhubak Primary Health Care Unit,Primary Health Care Unit,MoH,4.45,33.016,GPS
South Sudan,Eastern Equatoria,Tulugi Primary Health Care Unit,Primary Health Care Unit,MoH,4.3502,33.6252,GPS
South Sudan,Eastern Equatoria,ugwi/malnyang Primary Health Care Unit,Primary Health Care Unit,MoH,5.043,32.3914,GPS
South Sudan,Eastern Equatoria,Ukwanya Primary Health Care Unit,Primary Health Care Unit,MoH,5.0068,32.3955,GPS
South Sudan,Eastern Equatoria,Umma Primary Health Care Unit,Primary Health Care Unit,MoH,4.1743,33.0192,GPS
South Sudan,Eastern Equatoria,Ungebe Primary Health Care Unit,Primary Health Care Unit,MoH,4.7628,32.4693,GPS
South Sudan,Eastern Equatoria,Ungebe Primary Health Care Unit,Primary Health Care Unit,MoH,4.7628,32.4693,GPS
South Sudan,Eastern Equatoria,Upuo Primary Health Care Centre,Primary Health Care Centre,MoH,4.7861,32.4322,GPS
South Sudan,Eastern Equatoria,Upuo Primary Health Care Unit,Primary Health Care Unit,MoH,4.7868,32.4322,Geonames
South Sudan,Eastern Equatoria,Wildlife Primary Health Care Unit,Primary Health Care Unit,MoH,4.4186,32.5447,GPS
South Sudan,Eastern Equatoria,Winyol Wonga Primary Health Care Unit,Primary Health Care Unit,MoH,3.9337,32.1885,Geonames
South Sudan,Eastern Equatoria,Wipuboy Primary Health Care Unit,Primary Health Care Unit,MoH,5.109,32.4609,GPS
South Sudan,Eastern Equatoria,Wipuboy Primary Health Care Unit,Primary Health Care Unit,MoH,5.109,32.4609,GPS
South Sudan,Eastern Equatoria,Wokobu Primary Health Care Unit,Primary Health Care Unit,MoH,5.1397,33.516,GPS
South Sudan,Jonglei,Ajwarra Primary Health Care Unit,Primary Health Care Unit,MoH,7.0143,33.0967,GPS
South Sudan,Jonglei,Akeer (Ascom) Primary Health Care Unit,Primary Health Care Unit,MoH,7.8321,30.8948,GPS
South Sudan,Jonglei,Akobo County Hospital,County Hospital,MoH,7.799,33.0102,GPS
South Sudan,Jonglei,Akuai-Deng Primary Health Care Unit,Primary Health Care Unit,MoH,6.5635,31.5291,GPS
South Sudan,Jonglei,Alari Primary Health Care Unit,Primary Health Care Unit,MoH,7.0172,34.0017,GPS
South Sudan,Jonglei,Alela Primary Health Care Unit,Primary Health Care Unit,MoH,9.3783,31.3078,GPS
South Sudan,Jonglei,Amiel Primary Health Care Unit,Primary Health Care Unit,MoH,7.6956,31.2766,GPS
South Sudan,Jonglei,Anyidi Primary Health Care Unit,Primary Health Care Unit,MoH,6.1776,31.8129,GPS
South Sudan,Jonglei,Arek Primary Health Care Unit,Primary Health Care Unit,MoH,6.2469,31.5506,GPS
South Sudan,Jonglei,Ascom Ayod Primary Health Care Centre,Primary Health Care Centre,MoH,8.1354,31.4097,GPS
South Sudan,Jonglei,Atar Chuei Primary Health Care Unit,Primary Health Care Unit,MoH,9.2921,31.4103,GPS
South Sudan,Jonglei,Atar Primary Health Care Unit,Primary Health Care Unit,MoH,9.3385,31.4078,GPS
South Sudan,Jonglei,Ayod Primary Health Care Centre,Primary Health Care Centre,MoH,8.1228,31.4136,Geonames
South Sudan,Jonglei,Ayueldit Primary Health Care Unit,Primary Health Care Unit,MoH,7.7244,31.331,GPS
South Sudan,Jonglei,Baidit Primary Health Care Centre,Primary Health Care Centre,MoH,6.4295,31.5626,GPS
South Sudan,Jonglei,Baping Primary Health Care Unit,Primary Health Care Unit,MoH,7.076,31.4284,GPS
South Sudan,Jonglei,Bei Primary Health Care Unit,Primary Health Care Unit,MoH,8.2022,31.3745,GPS
South Sudan,Jonglei,Boma County Hospital,County Hospital,MoH,6.1787,34.3883,GPS
South Sudan,Jonglei,Bor State Hospital,State Hospital,MoH,6.2068,31.5569,Geonames
South Sudan,Jonglei,Bor Town Primary Health Care Unit,Primary Health Care Unit,MoH,6.1937,31.7701,GPS
South Sudan,Jonglei,Buong Primary Health Care Unit,Primary Health Care Unit,MoH,8.1619,32.3803,GPS
South Sudan,Jonglei,Burmath Primary Health Care Unit,Primary Health Care Unit,MoH,7.641,33.0156,GPS
South Sudan,Jonglei,Canal (Ayod) Primary Health Care Unit,Primary Health Care Unit,MoH,8.1321,31.3094,GPS
South Sudan,Jonglei,Canal (Pigi) Primary Health Care Unit,Primary Health Care Unit,MoH,9.3629,31.5496,GPS
South Sudan,Jonglei,Chiban Primary Health Care Unit,Primary Health Care Unit,MoH,7.6454,33.0666,GPS
South Sudan,Jonglei,Chotbora (Old Fang) Primary Health Care Unit,Primary Health Care Unit,MoH,9.1181,30.9262,GPS
South Sudan,Jonglei,Churi Primary Health Care Centre,Primary Health Care Centre,MoH,6.57,34.6208,GPS
South Sudan,Jonglei,Cuei-Ker Primary Health Care Unit,Primary Health Care Unit,MoH,6.0702,31.7943,GPS
South Sudan,Jonglei,Cuei-Magon Primary Health Care Unit,Primary Health Care Unit,MoH,6.1768,31.7766,GPS
South Sudan,Jonglei,Daktek Primary Health Care Unit,Primary Health Care Unit,MoH,7.0443,33.0976,GPS
South Sudan,Jonglei,Dhoreak Primary Health Care Unit,Primary Health Care Unit,MoH,9.0346,30.7094,GPS
South Sudan,Jonglei,Dilule Primary Health Care Unit,Primary Health Care Unit,MoH,7.8604,33.0028,GPS
South Sudan,Jonglei,Diror Primary Health Care Unit,Primary Health Care Unit,MoH,8.1166,32.3313,GPS
South Sudan,Jonglei,Dok Lost Clinic Primary Health Care Unit,Primary Health Care Unit,MoH,7.4825,31.5107,Geonames
South Sudan,Jonglei,Dongchak Primary Health Care Unit,Primary Health Care Unit,MoH,7.6813,31.4143,GPS
South Sudan,Jonglei,Dorok Primary Health Care Unit,Primary Health Care Unit,MoH,7.7841,31.3016,GPS
South Sudan,Jonglei,Duk Lost Boy Primary Health Care Centre,Primary Health Care Centre,MoH,7.4825,31.5107,GPS
South Sudan,Jonglei,Duk Padiet Primary Health Care Unit,Primary Health Care Unit,MoH,7.7493,31.3957,GPS
South Sudan,Jonglei,Duk/Paborkoi Primary Health Care Centre,Primary Health Care Centre,MoH,7.726,31.4058,Geonames
South Sudan,Jonglei,Fangak County Hospital,County Hospital,MoH,9.4091,31.1614,GPS
South Sudan,Jonglei,Gak Yuom Primary Health Care Unit,Primary Health Care Unit,MoH,6.2588,31.5695,GPS
South Sudan,Jonglei,Gorwai /Kalel Primary Health Care Unit,Primary Health Care Unit,MoH,8.1328,31.0768,GPS
South Sudan,Jonglei,Haat Primary Health Care Unit,Primary Health Care Unit,MoH,8.5166,30.6325,GPS
South Sudan,Jonglei,Jalle Primary Health Care Centre,Primary Health Care Centre,MoH,6.6718,31.7766,Geonames
South Sudan,Jonglei,Jiech Primary Health Care Unit,Primary Health Care Unit,MoH,8.3709,31.1367,GPS
South Sudan,Jonglei,Juaibor Primary Health Care Centre,Primary Health Care Centre,MoH,9.4008,30.6698,GPS
South Sudan,Jonglei,Kapaat Primary Health Care Unit,Primary Health Care Unit,MoH,6.2901,31.6808,GPS
South Sudan,Jonglei,Karam Primary Health Care Centre,Primary Health Care Centre,MoH,8.2106,31.8232,GPS
South Sudan,Jonglei,Kasingor Primary Health Care Unit,Primary Health Care Unit,MoH,5.7774,33.9732,GPS
South Sudan,Jonglei,Keew Primary Health Care Centre,Primary Health Care Centre,MoH,9.2636,30.6354,Geonames
South Sudan,Jonglei,Khorfulus Primary Health Care Centre,Primary Health Care Centre,MoH,9.3136,31.586,Geonames
South Sudan,Jonglei,Kiir Primary Health Care Unit,Primary Health Care Unit,MoH,7.2605,31.3588,GPS
South Sudan,Jonglei,Koatnyakoang Primary Health Care Unit,Primary Health Care Unit,MoH,9.4419,31.0565,GPS
South Sudan,Jonglei,Kolapach Buom Primary Health Care Unit,Primary Health Care Unit,MoH,9.3168,31.0728,GPS
South Sudan,Jonglei,Kol-Merek Primary Health Care Unit,Primary Health Care Unit,MoH,6.6193,31.5143,GPS
South Sudan,Jonglei,Kolnyang Primary Health Care Centre,Primary Health Care Centre,MoH,6.1371,31.7319,GPS
South Sudan,Jonglei,Konbeek Primary Health Care Unit,Primary Health Care Unit,MoH,6.2695,31.6905,GPS
South Sudan,Jonglei,Kongor Primary Health Care Unit,Primary Health Care Unit,MoH,7.1562,31.3553,GPS
South Sudan,Jonglei,Kony Primary Health Care Unit,Primary Health Care Unit,MoH,7.7003,33.0319,GPS
South Sudan,Jonglei,Kuachdeng Primary Health Care Unit,Primary Health Care Unit,MoH,7.9789,31.4409,GPS
South Sudan,Jonglei,Kuei (Bor) Primary Health Care Unit,Primary Health Care Unit,MoH,6.7287,31.4298,GPS
South Sudan,Jonglei,Kuemduok Primary Health Care Unit,Primary Health Care Unit,MoH,9.21,30.9439,GPS
South Sudan,Jonglei,Kuernyang Primary Health Care Centre,Primary Health Care Centre,MoH,9.3228,30.8869,Geonames
South Sudan,Jonglei,Labarab Primary Health Care Unit,Primary Health Care Unit,MoH,6.6611,33.9697,GPS
South Sudan,Jonglei,Langbaar Primary Health Care Unit,Primary Health Care Unit,MoH,6.2344,31.5721,GPS
South Sudan,Jonglei,Lankien Primary Health Care Centre,Primary Health Care Centre,MoH,8.5262,32.0614,GPS
South Sudan,Jonglei,Lual-Ajokbil Primary Health Care Unit,Primary Health Care Unit,MoH,7.058,31.3904,GPS
South Sudan,Jonglei,Lualdit Primary Health Care Unit,Primary Health Care Unit,MoH,6.2364,31.6104,GPS
South Sudan,Jonglei,Maar Pifca Primary Health Care Unit,Primary Health Care Unit,MoH,6.9022,31.3715,GPS
South Sudan,Jonglei,Mabior Primary Health Care Unit,Primary Health Care Unit,MoH,7.292,31.3886,GPS
South Sudan,Jonglei,Majok Primary Health Care Unit,Primary Health Care Unit,MoH,8.4757,32.0586,GPS
South Sudan,Jonglei,Makolcuei Primary Health Care Unit,Primary Health Care Unit,MoH,6.3786,31.6495,GPS
South Sudan,Jonglei,Makuac Primary Health Care Centre,Primary Health Care Centre,MoH,6.2616,31.7308,Geonames
South Sudan,Jonglei,Malakal Primary Health Care Unit,Primary Health Care Unit,MoH,6.1758,34.4448,Geonames
South Sudan,Jonglei,Malek (Kolnyang) Primary Health Care Unit,Primary Health Care Unit,MoH,6.069,31.6123,GPS
South Sudan,Jonglei,Malek Primary Health Care Unit,Primary Health Care Unit,MoH,8.3928,30.9269,GPS
South Sudan,Jonglei,Malual Agor Baar Primary Health Care Centre,Primary Health Care Centre,MoH,6.1254,31.5808,Geonames
South Sudan,Jonglei,Malual Chat Primary Health Care Unit,Primary Health Care Unit,MoH,6.1451,31.5759,GPS
South Sudan,Jonglei,Mandeng _Fangak Primary Health Care Unit,Primary Health Care Unit,MoH,9.389,30.8344,GPS
South Sudan,Jonglei,Manyiel Primary Health Care Unit,Primary Health Care Unit,MoH,5.9751,31.6522,GPS
South Sudan,Jonglei,Mareng (Bor) Primary Health Care Unit,Primary Health Care Unit,MoH,6.2028,31.7138,GPS
South Sudan,Jonglei,Mareng (Duk) Primary Health Care Centre,Primary Health Care Centre,MoH,9.2533,31.742,Geonames
South Sudan,Jonglei,Mareng (Pigi) Primary Health Care Unit,Primary Health Care Unit,MoH,7.6057,31.4512,GPS
South Sudan,Jonglei,Marial Primary Health Care Unit,Primary Health Care Unit,MoH,6.8795,31.3788,GPS
South Sudan,Jonglei,Maror Primary Health Care Unit,Primary Health Care Unit,MoH,6.2213,31.563,GPS
South Sudan,Jonglei,Mathiang (Baidit) Primary Health Care Unit,Primary Health Care Unit,MoH,6.5016,31.5597,GPS
South Sudan,Jonglei,Meer Primary Health Care Unit,Primary Health Care Unit,MoH,7.7325,33.0222,GPS
South Sudan,Jonglei,Menime Primary Health Care Centre,Primary Health Care Centre,MoH,8.6106,30.7195,GPS
South Sudan,Jonglei,Mian Primary Health Care Unit,Primary Health Care Unit,MoH,6.2437,34.6872,GPS
South Sudan,Jonglei,Modit Primary Health Care Unit,Primary Health Care Unit,MoH,7.9996,31.8773,GPS
South Sudan,Jonglei,Mogok Primary Health Care Unit,Primary Health Care Unit,MoH,8.4024,31.3365,Geonames
South Sudan,Jonglei,Motot Primary Health Care Unit,Primary Health Care Unit,MoH,8.1632,32.0485,GPS
South Sudan,Jonglei,Msf-H Primary Health Care Unit,Primary Health Care Unit,MoH,7.9079,31.8911,GPS
South Sudan,Jonglei,Nyadiu Primary Health Care Centre,Primary Health Care Centre,MoH,8.7997,30.6691,Geonames
South Sudan,Jonglei,Nyalo Ngoro Primary Health Care Centre,Primary Health Care Centre,MoH,6.4567,34.4387,GPS
South Sudan,Jonglei,Nyat Primary Health Care Unit,Primary Health Care Unit,MoH,6.2726,34.391,GPS
South Sudan,Jonglei,Nyawit Outreach Primary Health Care Unit,Primary Health Care Unit,MoH,7.7151,30.6393,GPS
South Sudan,Jonglei,Nyin Majok Primary Health Care Unit,Primary Health Care Unit,MoH,5.8772,31.7478,GPS
South Sudan,Jonglei,Nyium Primary Health Care Unit,Primary Health Care Unit,MoH,7.0356,34.0036,GPS
South Sudan,Jonglei,Oang Primary Health Care Centre,Primary Health Care Centre,MoH,6.168,34.4131,GPS
South Sudan,Jonglei,Obudi Primary Health Care Unit,Primary Health Care Unit,MoH,7.0801,34.0167,GPS
South Sudan,Jonglei,Ojansbai Primary Health Care Unit,Primary Health Care Unit,MoH,7.1546,34.1346,GPS
South Sudan,Jonglei,Okadi Primary Health Care Unit,Primary Health Care Unit,MoH,6.0975,34.0284,GPS
South Sudan,Jonglei,Old Akobo Primary Health Care Unit,Primary Health Care Unit,MoH,7.7912,33.0438,GPS
South Sudan,Jonglei,Old Fangak Hosp Primary Health Care Centre,Primary Health Care Centre,MoH,9.0667,30.8801,Geonames
South Sudan,Jonglei,Ottalo Primary Health Care Unit,Primary Health Care Unit,MoH,7.0151,33.0856,GPS
South Sudan,Jonglei,Pagaak Primary Health Care Unit,Primary Health Care Unit,MoH,7.9287,31.497,GPS
South Sudan,Jonglei,Pageleng Primary Health Care Unit,Primary Health Care Unit,MoH,7.687,31.6881,GPS
South Sudan,Jonglei,Pager Primary Health Care Unit,Primary Health Care Unit,MoH,7.1954,31.3852,GPS
South Sudan,Jonglei,Pagil Primary Health Care Unit,Primary Health Care Unit,MoH,8.7109,31.2693,GPS
South Sudan,Jonglei,Pajiek Primary Health Care Unit,Primary Health Care Unit,MoH,8.0463,31.3014,GPS
South Sudan,Jonglei,Pajut Kuirgai Primary Health Care Unit,Primary Health Care Unit,MoH,7.7474,31.688,GPS
South Sudan,Jonglei,Pakam Primary Health Care Unit,Primary Health Care Unit,MoH,7.7393,31.3995,GPS
South Sudan,Jonglei,Palabaac Primary Health Care Unit,Primary Health Care Unit,MoH,6.315,31.616,GPS
South Sudan,Jonglei,Paliau Primary Health Care Centre,Primary Health Care Centre,MoH,6.9601,31.3784,GPS
South Sudan,Jonglei,Pamai Primary Health Care Unit,Primary Health Care Unit,MoH,7.7926,31.8792,GPS
South Sudan,Jonglei,Pangborong Primary Health Care Unit,Primary Health Care Unit,MoH,9.1306,31.4021,GPS
South Sudan,Jonglei,Pan-Lueth Primary Health Care Unit,Primary Health Care Unit,MoH,6.3639,31.6034,GPS
South Sudan,Jonglei,Pan-Pandiar Primary Health Care Unit,Primary Health Care Unit,MoH,6.0295,31.6259,GPS
South Sudan,Jonglei,Pan-Wel Primary Health Care Unit,Primary Health Care Unit,MoH,5.9312,31.6991,GPS
South Sudan,Jonglei,Panyagor Primary Health Care Centre,Primary Health Care Centre,MoH,7.2058,31.3988,Geonames
South Sudan,Jonglei,Panyang Outreach Primary Health Care Unit,Primary Health Care Unit,MoH,8.4363,31.3441,GPS
South Sudan,Jonglei,Pariak Primary Health Care Centre,Primary Health Care Centre,MoH,5.971,31.6607,GPS
South Sudan,Jonglei,Pathai Primary Health Care Unit,Primary Health Care Unit,MoH,8.0711,31.8353,GPS
South Sudan,Jonglei,Patiou Primary Health Care Unit,Primary Health Care Unit,MoH,6.7758,31.4085,GPS
South Sudan,Jonglei,Patuenoi Primary Health Care Unit,Primary Health Care Unit,MoH,7.516,31.4812,GPS
South Sudan,Jonglei,Payai Primary Health Care Unit,Primary Health Care Unit,MoH,7.9875,31.9659,GPS
South Sudan,Jonglei,Payom Primary Health Care Unit,Primary Health Care Unit,MoH,6.8532,31.3392,Geonames
South Sudan,Jonglei,Pieri Primary Health Care Centre,Primary Health Care Centre,MoH,8.041,32.0316,Geonames
South Sudan,Jonglei,Pochalla Primary Health Care Centre,Primary Health Care Centre,MoH,7.1776,34.0873,GPS
South Sudan,Jonglei,Poktap Primary Health Care Centre,Primary Health Care Centre,MoH,7.4546,31.4091,GPS
South Sudan,Jonglei,Pul Chuol Primary Health Care Centre,Primary Health Care Centre,MoH,8.1105,31.9627,GPS
South Sudan,Jonglei,Pultruk Primary Health Care Centre,Primary Health Care Centre,MoH,8.5948,31.9484,Geonames
South Sudan,Jonglei,Raad Primary Health Care Unit,Primary Health Care Unit,MoH,6.5946,34.7579,GPS
South Sudan,Jonglei,Tangnyang Primary Health Care Unit,Primary Health Care Unit,MoH,8.1089,32.2909,GPS
South Sudan,Jonglei,Thkliel Primary Health Care Unit,Primary Health Care Unit,MoH,7.878,32.9983,GPS
South Sudan,Jonglei,Thokcok Primary Health Care Unit,Primary Health Care Unit,MoH,9.1639,30.7596,GPS
South Sudan,Jonglei,Thokwath Primary Health Care Unit,Primary Health Care Unit,MoH,7.9419,32.9966,GPS
South Sudan,Jonglei,Thotwat Primary Health Care Unit,Primary Health Care Unit,MoH,8.1127,31.4036,GPS
South Sudan,Jonglei,Toch Primary Health Care Unit,Primary Health Care Unit,MoH,8.9667,30.7077,GPS
South Sudan,Jonglei,Tong Primary Health Care Unit,Primary Health Care Unit,MoH,6.3995,31.5685,GPS
South Sudan,Jonglei,Upper Boma Primary Health Care Centre,Primary Health Care Centre,MoH,6.1769,34.443,GPS
South Sudan,Jonglei,Waat Primary Health Care Centre,Primary Health Care Centre,MoH,8.185,32.153,GPS
South Sudan,Jonglei,Walgak Primary Health Care Centre,Primary Health Care Centre,MoH,8.1608,32.2387,GPS
South Sudan,Jonglei,Wan Machar Primary Health Care Centre,Primary Health Care Centre,MoH,8.232,30.5943,GPS
South Sudan,Jonglei,Wang Lel Primary Health Care Unit,Primary Health Care Unit,MoH,9.1695,30.9044,GPS
South Sudan,Jonglei,Wangchoat Primary Health Care Unit,Primary Health Care Unit,MoH,9.0995,30.8241,GPS
South Sudan,Jonglei,Wangulei Primary Health Care Unit,Primary Health Care Unit,MoH,7.0848,31.3775,GPS
South Sudan,Jonglei,Wau Primary Health Care Unit,Primary Health Care Unit,MoH,8.2531,31.3728,GPS
South Sudan,Jonglei,Wernyol Primary Health Care Centre,Primary Health Care Centre,MoH,7.3285,31.4149,GPS
South Sudan,Jonglei,Wunangui Primary Health Care Unit,Primary Health Care Unit,MoH,9.2919,31.3695,GPS
South Sudan,Jonglei,Wunbin Primary Health Care Unit,Primary Health Care Unit,MoH,8.2806,31.3542,GPS
South Sudan,Jonglei,Yian Primary Health Care Unit,Primary Health Care Unit,MoH,8.1018,31.1989,GPS
South Sudan,Jonglei,Yidit Primary Health Care Unit,Primary Health Care Unit,MoH,8.2176,32.2664,GPS
South Sudan,Jonglei,Yomcllr Primary Health Care Unit,Primary Health Care Unit,MoH,6.5405,31.5326,GPS
South Sudan,Jonglei,Yuai Primary Health Care Centre,Primary Health Care Centre,MoH,7.9051,31.8911,GPS
South Sudan,Lakes,Abeer Primary Health Care Unit,Primary Health Care Unit,MoH,6.8724,29.5752,GPS
South Sudan,Lakes,Abiei Ajok Primary Health Care Unit,Primary Health Care Unit,MoH,6.7399,29.6635,GPS
South Sudan,Lakes,Abiriu Primary Health Care Centre,Primary Health Care Centre,MoH,6.9393,29.4239,Geonames
South Sudan,Lakes,Abuyung Primary Health Care Unit,Primary Health Care Unit,MoH,6.3546,31.1279,GPS
South Sudan,Lakes,Acigor Primary Health Care Unit,Primary Health Care Unit,MoH,6.7112,30.4965,GPS
South Sudan,Lakes,Adior Primary Health Care Centre,Primary Health Care Centre,MoH,6.7806,30.7216,Geonames
South Sudan,Lakes,Adirdir Primary Health Care Unit,Primary Health Care Unit,MoH,6.6781,29.8275,GPS
South Sudan,Lakes,Adol Primary Health Care Centre,Primary Health Care Centre,MoH,6.6272,29.9197,Geonames
South Sudan,Lakes,Agony Primary Health Care Unit,Primary Health Care Unit,MoH,6.4366,30.0549,GPS
South Sudan,Lakes,Akut Primary Health Care Centre,Primary Health Care Centre,MoH,6.5536,30.038,Geonames
South Sudan,Lakes,Aluak Luak Primary Health Care Centre,Primary Health Care Centre,MoH,6.4682,30.1051,GPS
South Sudan,Lakes,Amer Primary Health Care Unit,Primary Health Care Unit,MoH,6.6316,29.7699,GPS
South Sudan,Lakes,Amethduol Primary Health Care Unit,Primary Health Care Unit,MoH,6.8922,29.5219,GPS
South Sudan,Lakes,Amethic Primary Health Care Unit,Primary Health Care Unit,MoH,6.66,30.4851,GPS
South Sudan,Lakes,Amok Primary Health Care Unit,Primary Health Care Unit,MoH,7.54,29.64,Geonames
South Sudan,Lakes,Angongrial Primary Health Care Centre,Primary Health Care Centre,MoH,6.8523,29.2255,GPS
South Sudan,Lakes,Anuol Primary Health Care Centre,Primary Health Care Centre,MoH,6.2581,30.3827,GPS
South Sudan,Lakes,Aruau Primary Health Care Unit,Primary Health Care Unit,MoH,6.6558,30.6286,GPS
South Sudan,Lakes,Aruomnyiol Primary Health Care Unit,Primary Health Care Unit,MoH,6.6105,30.5134,GPS
South Sudan,Lakes,Atiaba Primary Health Care Unit,Primary Health Care Unit,MoH,6.5739,29.9627,GPS
South Sudan,Lakes,Atiriu Primary Health Care Unit,Primary Health Care Unit,MoH,6.457,30.0193,GPS
South Sudan,Lakes,Awac Primary Health Care Unit,Primary Health Care Unit,MoH,6.5205,29.8087,GPS
South Sudan,Lakes,Awerial Primary Health Care Unit,Primary Health Care Unit,MoH,6.1267,31.1724,Geonames
South Sudan,Lakes,Ayei Primary Health Care Unit,Primary Health Care Unit,MoH,6.8818,29.6264,GPS
South Sudan,Lakes,Barhget Primary Health Care Unit,Primary Health Care Unit,MoH,7.019,29.155,GPS
South Sudan,Lakes,Bellwau Primary Health Care Unit,Primary Health Care Unit,MoH,6.742,29.5032,GPS
South Sudan,Lakes,Betoi Primary Health Care Unit,Primary Health Care Unit,MoH,6.6378,30.6885,GPS
South Sudan,Lakes,Bhar Gel Primary Health Care Unit,Primary Health Care Unit,MoH,6.7208,29.155,GPS
South Sudan,Lakes,Biling Primary Health Care Unit,Primary Health Care Unit,MoH,6.7419,30.6578,GPS
South Sudan,Lakes,Billing County Hospital,County Hospital,MoH,6.3949,29.7932,GPS
South Sudan,Lakes,Boraliop (Cbhc) Primary Health Care Centre,Primary Health Care Centre,MoH,6.5955,29.8798,GPS
South Sudan,Lakes,Bunagok Primary Health Care Centre,Primary Health Care Centre,MoH,6.2135,30.9954,GPS
South Sudan,Lakes,Chuei-Cok Primary Health Care Unit,Primary Health Care Unit,MoH,6.8852,29.5434,GPS
South Sudan,Lakes,Citcok Primary Health Care Unit,Primary Health Care Unit,MoH,7.1949,29.222,GPS
South Sudan,Lakes,Colocok Primary Health Care Centre,Primary Health Care Centre,MoH,6.7605,29.5421,Geonames
South Sudan,Lakes,Cuei Chok Primary Health Care Unit,Primary Health Care Unit,MoH,6.7255,29.7455,GPS
South Sudan,Lakes,Cueibet County Hospital,County Hospital,MoH,7.0131,29.2418,GPS
South Sudan,Lakes,Cuelbalac Primary Health Care Unit,Primary Health Care Unit,MoH,6.4538,29.7626,GPS
South Sudan,Lakes,Deng Nhial Primary Health Care Unit,Primary Health Care Unit,MoH,6.824,29.6776,GPS
South Sudan,Lakes,Dhiakuei Primary Health Care Unit,Primary Health Care Unit,MoH,6.5741,29.8274,GPS
South Sudan,Lakes,Dotecku Primary Health Care Unit,Primary Health Care Unit,MoH,6.1346,29.4789,GPS
South Sudan,Lakes,Duony Primary Health Care Unit,Primary Health Care Unit,MoH,6.9682,29.3717,GPS
South Sudan,Lakes,Geng Geng Primary Health Care Unit,Primary Health Care Unit,MoH,6.4775,30.5939,GPS
South Sudan,Lakes,Guba (Lila) Primary Health Care Unit,Primary Health Care Unit,MoH,6.4671,29.55,GPS
South Sudan,Lakes,Gulmer Primary Health Care Unit,Primary Health Care Unit,MoH,6.6467,29.5371,GPS
South Sudan,Lakes,Health Link Site 2 1 Primary Health Care Unit,Primary Health Care Unit,MoH,6.1267,31.1724,Geonames
South Sudan,Lakes,Health Link site 2 2 Primary Health Care Unit,Primary Health Care Unit,MoH,6.2133,31.0025,Geonames
South Sudan,Lakes,Health Link Site 3 Primary Health Care Unit,Primary Health Care Unit,MoH,6.211,30.9961,Geonames
South Sudan,Lakes,IMC Site 1 1 Primary Health Care Unit,Primary Health Care Unit,MoH,6.0516,31.2869,Geonames
South Sudan,Lakes,IMC Site 1 2 Primary Health Care Unit,Primary Health Care Unit,MoH,6.2137,31.0147,Geonames
South Sudan,Lakes,IMC Site 2 Awerial Primary Health Care Unit,Primary Health Care Unit,MoH,6.05,31.5152,Geonames
South Sudan,Lakes,IMC Site 2 Paluk Primary Health Care Unit,Primary Health Care Unit,MoH,6.194,31.4716,Geonames
South Sudan,Lakes,Jarweng Primary Health Care Unit,Primary Health Care Unit,MoH,6.1704,31.5601,GPS
South Sudan,Lakes,Juit-Juit Primary Health Care Unit,Primary Health Care Unit,MoH,6.9075,29.5862,GPS
South Sudan,Lakes,Kalthok Primary Health Care Unit,Primary Health Care Unit,MoH,5.8816,31.5721,Geonames
South Sudan,Lakes,Kap Primary Health Care Unit,Primary Health Care Unit,MoH,6.7159,30.4464,GPS
South Sudan,Lakes,Kawic Primary Health Care Unit,Primary Health Care Unit,MoH,6.6065,30.4296,GPS
South Sudan,Lakes,Kolcum Primary Health Care Unit,Primary Health Care Unit,MoH,6.4743,29.8095,GPS
South Sudan,Lakes,Kubur William Primary Health Care Unit,Primary Health Care Unit,MoH,6.9107,29.4757,GPS
South Sudan,Lakes,Kuel Kuech Primary Health Care Centre,Primary Health Care Centre,MoH,6.5735,29.6385,GPS
South Sudan,Lakes,Laam Primary Health Care Centre,Primary Health Care Centre,MoH,6.3298,29.9146,GPS
South Sudan,Lakes,Lang Matol Primary Health Care Unit,Primary Health Care Unit,MoH,6.6411,30.9708,GPS
South Sudan,Lakes,Langdit Primary Health Care Unit,Primary Health Care Unit,MoH,7.0617,29.0907,GPS
South Sudan,Lakes,Lekakedu Primary Health Care Unit,Primary Health Care Unit,MoH,6.6772,30.5864,GPS
South Sudan,Lakes,Mabaric Primary Health Care Unit,Primary Health Care Unit,MoH,6.5048,29.8749,GPS
South Sudan,Lakes,Mabor Duang Primary Health Care Unit,Primary Health Care Unit,MoH,6.518,29.8392,GPS
South Sudan,Lakes,Mading/Thian Primary Health Care Unit,Primary Health Care Unit,MoH,6.456,31.1701,GPS
South Sudan,Lakes,Madol Primary Health Care Unit,Primary Health Care Unit,MoH,7.56,29.75,Geonames
South Sudan,Lakes,Mageng Primary Health Care Unit,Primary Health Care Unit,MoH,6.3216,30.3224,GPS
South Sudan,Lakes,Majakjier Primary Health Care Unit,Primary Health Care Unit,MoH,6.5603,29.8499,GPS
South Sudan,Lakes,Makembella Primary Health Care Unit,Primary Health Care Unit,MoH,6.5889,29.5679,GPS
South Sudan,Lakes,Makembelle Primary Health Care Centre,Primary Health Care Centre,MoH,6.7273,29.6564,Geonames
South Sudan,Lakes,Makoor Primary Health Care Unit,Primary Health Care Unit,MoH,6.6005,29.31,GPS
South Sudan,Lakes,Malek Rumbek Primary Health Care Unit,Primary Health Care Unit,MoH,7.2059,29.7199,GPS
South Sudan,Lakes,Malek Primary Health Care Unit,Primary Health Care Unit,MoH,6.7211,30.7963,GPS
South Sudan,Lakes,Maleng Agola Primary Health Care Unit,Primary Health Care Unit,MoH,6.7089,29.7631,GPS
South Sudan,Lakes,Malou Medi. Corps Primary Health Care Unit,Primary Health Care Unit,FBO/NGO,6.7076,29.6555,GPS
South Sudan,Lakes,Malou Pec Primary Health Care Unit,Primary Health Care Unit,MoH,7.1104,29.0295,GPS
South Sudan,Lakes,Malou Primary Health Care Unit,Primary Health Care Unit,MoH,6.4345,29.7596,GPS
South Sudan,Lakes,Malteser Int. Primary Health Care Centre,Primary Health Care Centre,MoH,6.8173,29.6662,GPS
South Sudan,Lakes,Malual Bab Primary Health Care Centre,Primary Health Care Centre,MoH,6.8002,29.6754,Geonames
South Sudan,Lakes,Maper Primary Health Care Unit,Primary Health Care Unit,MoH,7.6478,29.67,GPS
South Sudan,Lakes,Mary Immaculate County Hospital,County Hospital,MoH,6.3847,30.0853,GPS
South Sudan,Lakes,Mathiang Kok Primary Health Care Unit,Primary Health Care Unit,MoH,6.6262,29.7469,GPS
South Sudan,Lakes,Mathiang Primary Health Care Unit,Primary Health Care Unit,MoH,6.8673,29.6393,GPS
South Sudan,Lakes,Mayanthon Primary Health Care Unit,Primary Health Care Unit,MoH,6.9715,29.2218,GPS
South Sudan,Lakes,Mayath Primary Health Care Unit,Primary Health Care Unit,MoH,6.9903,29.3288,GPS
South Sudan,Lakes,Mingkaman Primary Health Care Unit,Primary Health Care Unit,MoH,6.05,31.5152,Geonames
South Sudan,Lakes,Muorkuec Primary Health Care Unit,Primary Health Care Unit,MoH,6.6884,29.5022,GPS
South Sudan,Lakes,Nuktamaga (Domotolo) Primary Health Care Unit,Primary Health Care Unit,MoH,6.2466,29.6197,GPS
South Sudan,Lakes,Nyang Koot Primary Health Care Unit,Primary Health Care Unit,MoH,6.8704,29.6715,GPS
South Sudan,Lakes,Nyang Primary Health Care Centre,Primary Health Care Centre,MoH,6.7079,30.6055,GPS
South Sudan,Lakes,Pabur Primary Health Care Unit,Primary Health Care Unit,MoH,6.4326,30.599,GPS
South Sudan,Lakes,Pacong Primary Health Care Centre,Primary Health Care Centre,MoH,6.6927,29.7891,Geonames
South Sudan,Lakes,Pagaraw Primary Health Care Unit,Primary Health Care Unit,MoH,6.7407,30.4083,GPS
South Sudan,Lakes,Palok Primary Health Care Unit,Primary Health Care Unit,MoH,6.7672,30.1027,GPS
South Sudan,Lakes,Panawach Primary Health Care Unit,Primary Health Care Unit,MoH,6.6759,29.8136,GPS
South Sudan,Lakes,Pandit Rumbek Primary Health Care Unit,Primary Health Care Unit,MoH,6.5942,30.1504,GPS
South Sudan,Lakes,Pankar Primary Health Care Unit,Primary Health Care Unit,MoH,6.5777,30.4783,GPS
South Sudan,Lakes,Panthou Primary Health Care Unit,Primary Health Care Unit,MoH,7.283,29.4801,Geonames
South Sudan,Lakes,Ping Path Primary Health Care Unit,Primary Health Care Unit,MoH,6.242,30.4219,GPS
South Sudan,Lakes,Ramchiel Primary Health Care Unit,Primary Health Care Unit,MoH,6.4383,30.9677,GPS
South Sudan,Lakes,Rumbek Centre Prison Primary Health Care Centre,Primary Health Care Centre,MoH,6.8074,29.676,Geonames
South Sudan,Lakes,Rumbek Sec Sch Clini Primary Health Care Unit,Primary Health Care Unit,MoH,6.801,29.6869,GPS
South Sudan,Lakes,Rumbek State Hospital,State Hospital,MoH,6.8102,29.678,GPS
South Sudan,Lakes,Shambe Primary Health Care Centre,Primary Health Care Centre,MoH,7.1057,30.7738,GPS
South Sudan,Lakes,SMC Awerial Primary Health Care Centre,Primary Health Care Centre,FBO/NGO,6.0554,31.5142,Geonames
South Sudan,Lakes,SMC Puluk Primary Health Care Centre,Primary Health Care Centre,FBO/NGO,6.2085,30.9994,Geonames
South Sudan,Lakes,St. Joseph County Hospital,County Hospital,MoH,6.5483,30.4949,GPS
South Sudan,Lakes,Thonabutkok Primary Health Care Centre,Primary Health Care Centre,MoH,6.6789,30.4159,GPS
South Sudan,Lakes,Tiaptiap Primary Health Care Unit,Primary Health Care Unit,MoH,7.3252,29.3242,GPS
South Sudan,Lakes,Tilkuc Primary Health Care Centre,Primary Health Care Centre,MoH,6.4313,29.9011,Geonames
South Sudan,Lakes,Tonjo Primary Health Care Unit,Primary Health Care Unit,MoH,6.3322,29.7269,GPS
South Sudan,Lakes,Warliet Primary Health Care Unit,Primary Health Care Unit,MoH,6.4992,29.972,GPS
South Sudan,Lakes,Wokou Primary Health Care Unit,Primary Health Care Unit,MoH,6.0938,29.768,GPS
South Sudan,Lakes,Wulu Primary Health Care Centre,Primary Health Care Centre,MoH,6.5086,29.6272,Geonames
South Sudan,Lakes,Wun Rieng Primary Health Care Unit,Primary Health Care Unit,MoH,7.64,29.7,Geonames
South Sudan,Lakes,Yirol County Hospital,County Hospital,MoH,6.5533,30.5017,GPS
South Sudan,Lakes,Yoli Primary Health Care Unit,Primary Health Care Unit,MoH,6.6576,30.4829,GPS
South Sudan,Northern Bahr el Ghazal,Abul Primary Health Care Unit,Primary Health Care Unit,MoH,8.1086,26.6828,GPS
South Sudan,Northern Bahr el Ghazal,Achana Primary Health Care Unit,Primary Health Care Unit,MoH,8.2644,26.3418,GPS
South Sudan,Northern Bahr el Ghazal,Adoor Primary Health Care Unit,Primary Health Care Unit,MoH,9.4466,27.7499,GPS
South Sudan,Northern Bahr el Ghazal,Aguat Primary Health Care Unit,Primary Health Care Unit,MoH,9.0742,27.091,GPS
South Sudan,Northern Bahr el Ghazal,Ajak Wol Primary Health Care Unit,Primary Health Care Unit,MoH,9.3292,27.1041,GPS
South Sudan,Northern Bahr el Ghazal,Akac Primary Health Care Unit,Primary Health Care Unit,MoH,9.4769,27.4765,Geonames
South Sudan,Northern Bahr el Ghazal,Akuak Malual Primary Health Care Unit,Primary Health Care Unit,MoH,9.1173,26.6343,GPS
South Sudan,Northern Bahr el Ghazal,Akuakoc Primary Health Care Unit,Primary Health Care Unit,MoH,9.1203,26.4539,GPS
South Sudan,Northern Bahr el Ghazal,Akuakrak Primary Health Care Unit,Primary Health Care Unit,MoH,8.948,26.3974,GPS
South Sudan,Northern Bahr el Ghazal,Akuangkar Primary Health Care Unit,Primary Health Care Unit,MoH,8.8094,26.8502,GPS
South Sudan,Northern Bahr el Ghazal,Akuem County Hospital,County Hospital,MoH,8.9621,27.5007,GPS
South Sudan,Northern Bahr el Ghazal,Alok Primary Health Care Unit,Primary Health Care Unit,MoH,8.4403,27.5271,Geonames
South Sudan,Northern Bahr el Ghazal,Aluel Acot Primary Health Care Unit,Primary Health Care Unit,MoH,9.0332,27.0283,GPS
South Sudan,Northern Bahr el Ghazal,Amar Jal Primary Health Care Unit,Primary Health Care Unit,MoH,9.0555,27.6781,GPS
South Sudan,Northern Bahr el Ghazal,Amatnyang Primary Health Care Unit,Primary Health Care Unit,MoH,9.1209,27.1433,Geonames
